醫事機構代碼,醫事機構名稱,電話,地址,地圖地址,緯度,經度,備註,縣市,鄉鎮市區
5901012203,博荃藥局,02-27316736,台北市松山區敦化北路4巷51號,台北市松山區中正里18鄰敦化北路4巷51號,25.050063,121.544742,"如遇國定連續假期,藥局公休",台北市,松山區
5901012383,德川中西藥局,02-27683399,台北市松山區八德路4段96號,台北市松山區復盛里17鄰八德路四段96號,25.04836,121.56066000000001,,台北市,松山區
5901012409,家音藥局,02-37652080,台北市松山區民生東路5段73號,台北市松山區東榮里7鄰民生東路五段73號,25.058709,121.558489,早上9:00到晚上11:00,台北市,松山區
5901012454,敦北藥局,02-27155691,台北市松山區民生東路4段80巷5號,台北市松山區東昌里10鄰民生東路四段80巷5號,25.057129,121.553125,,台北市,松山區
5901012490,中美藥局,02-27627468,台北市松山區富錦街531號,台北市松山區新益里17鄰富錦街531號,25.061285,121.565481,"營業時間如有異動,以藥局公告為準",台北市,松山區
5901012507,康麗藥局,02-27174117,台北市松山區南京東路3段303巷20號,台北市松山區中正里22鄰南京東路三段303巷20號,25.05369,121.546826,春節營業時間請電洽,台北市,松山區
5901012516,惠登藥局,02-25472432,台北市松山區民生東路3段130巷34號,台北市松山區松基里8鄰民生東路三段130巷34號,25.056198000000002,121.54611299999999,,台北市,松山區
5901012561,松田藥局,02-25798005,台北市松山區延吉街9－6號,台北市松山區吉仁里2鄰延吉街9之6號,25.047007,121.55355,,台北市,松山區
5901012570,予志藥局,02-27623522,台北市松山區富錦街521號,台北市松山區富錦里16鄰富錦街521號,25.061186,121.564944,,台北市,松山區
5901012598,婕登藥局,02-27482893,台北市松山區八德路4段699號,台北市松山區慈祐里20鄰八德路四段699號,25.050207,121.57664399999999,,台北市,松山區
5901012632,晨安藥局,02-25798460,台北市松山區八德路3段155巷20弄2號,台北市松山區復勢里7鄰八德路三段155巷20弄2號,25.049136999999998,121.55532600000001,,台北市,松山區
5901012650,銘德藥局,02-27511833,台北市松山區八德路2段366巷28號,台北市松山區中崙里10鄰八德路二段366巷28號,25.047242,121.545925,,台北市,松山區
5901012669,政昇藥局,02-27560286,台北市松山區南京東路5段356號13樓,台北市松山區新聚里3鄰南京東路五段356號,25.051063,121.56969099999999,,台北市,松山區
5901012712,立康大藥局,02-27471749,台北市松山區八德路四段2－1號,台北市松山區復盛里1鄰八德路四段2之1號,25.048117,121.55811100000001,,台北市,松山區
5901012749,躍獅松和藥局,02-27492569,台北市松山區八德路四段666－1號,台北市松山區慈祐里18鄰八德路四段666之1號,25.049789999999998,121.57609199999999,,台北市,松山區
5901012758,京東藥局,02-27679503,台北市松山區南京東路五段272號,台北市松山區新聚里10鄰南京東路五段272號,25.05114,121.56694499999999,,台北市,松山區
5901012767,晨新藥局,02-27422951,台北市松山區八德路4段91巷1－1號,台北市松山區吉祥里23鄰八德路四段91巷1之1號,25.048944,121.56076100000001,,台北市,松山區
5901012918,躍獅京華藥局,02-27666508,台北市松山區南京東路5段71號,台北市松山區東光里23鄰南京東路五段71號,25.051714999999998,121.55956200000001,,台北市,松山區
5901012963,綠之家藥局,02-25289595,台北市松山區延壽街428號,台北市松山區龍田里10鄰延壽街428號,25.056197,121.55621699999999,,台北市,松山區
5901013004,德安藥局,02-25782670,台北市松山區八德路3段195號2樓,台北市松山區復勢里1鄰八德路三段195號,25.048163,121.55618999999999,,台北市,松山區
5901013095,康采藥局,02-27670271,台北市松山區南京東路5段291巷17－2號,台北市松山區安平里20鄰南京東路五段291巷17之2號,25.052363,121.566253,,台北市,松山區
5901013120,誠康中西藥局,02-27619679,台北市松山區南京東路5段59巷31弄43號,台北市松山區東光里15鄰南京東路五段59巷31弄43號,25.053458,121.560723,,台北市,松山區
5901013139,慶昌藥局,02-25770820,台北市松山區延吉街29號,台北市松山區吉仁里3鄰延吉街29號,25.045949,121.553706,,台北市,松山區
5901013148,唯康藥局,02-25775000,台北市松山區八德路3段211號,台北市松山區復勢里13鄰八德路三段211號,25.048196,121.55663700000001,,台北市,松山區
5901013157,西松健康人生藥局,02-27687807,台北市松山區南京東路5段291巷7號,台北市松山區安平里21鄰南京東路五段291巷7號,25.052004999999998,121.566247,,台北市,松山區
5901013175,台北長庚維康藥局,02-27199386,台北市松山區敦化北路199巷2弄1號,台北市松山區中華里3鄰敦化北路199巷2弄1號,25.055737,121.55003899999998,,台北市,松山區
5901013200,專品南京藥局,02-25147685,台北市松山區南京東路4段73號,台北市松山區東勢里15鄰南京東路四段73號,25.051845999999998,121.55316699999999,,台北市,松山區
5901013246,芝欣藥局,02-25706677,台北市松山區八德路3段148號,台北市松山區復源里11鄰八德路三段148號,25.047992,121.55481499999999,,台北市,松山區
5901013264,佑翔藥局,02-87875050,台北市松山區民生東路5段95號,台北市松山區東榮里7鄰民生東路五段95號,25.058805,121.55968999999999,,台北市,松山區
5901013308,立赫敦北藥局,02-27199277,台北市松山區敦化北路222巷20號,台北市松山區民有里14鄰敦化北路222巷20號,25.059447,121.547743,,台北市,松山區
5901013317,延壽盛康藥局,02-25182229,台北市松山區延壽街111號,台北市松山區富泰里1鄰延壽街111號,25.057113,121.565349,,台北市,松山區
5901013326,富景藥局,02-27455666,台北市松山區三民路145號,台北市松山區三民里27鄰三民路145號,25.060785,121.563097,,台北市,松山區
5901013344,健康活力藥師藥局,02-27455556,台北市松山區民生東路5段219號,台北市松山區新東里17鄰民生東路五段219號,25.05931,121.56693,,台北市,松山區
5901013362,啄木鳥藥局,02-27422413,台北市松山區八德路4段209號、211號（1、2層）,台北市松山區吉祥里1鄰八德路四段209號,25.048937,121.563957,,台北市,松山區
5901013371,玖田藥局,02-27666578,台北市松山區八德路4段655號,台北市松山區慈祐里17鄰八德路四段655號,25.050178,121.575529,,台北市,松山區
5901013380,澄馨藥局,02-27420159,台北市松山區三民路37號,台北市松山區自強里22鄰三民路37號,25.055801000000002,121.563524,,台北市,松山區
5901013399,一安正昇藥局,02-27680993,台北市松山區南京東路5段348號,台北市松山區新聚里7鄰南京東路五段348號,25.051077,121.569309,,台北市,松山區
5901013406,美優康藥局,02-27152319,台北市松山區民生東路4段117之1號,台北市松山區精忠里6鄰民生東路四段117之1號,25.058242,121.55331399999999,,台北市,松山區
5901013433,杏一延吉藥局,02-25798450,臺北市松山區延吉街32號,台北市松山區吉仁里8鄰延吉街32號,25.046075,121.553504,國定假日有提供藥事服務業務,台北市,松山區
5901013442,松山八德藥局,02-27782773,臺北市松山區八德路2段400號,台北市松山區中崙里7鄰八德路二段400號,25.048043,121.54656999999999,國定假日有執行調劑業務,台北市,松山區
5901013451,新德大藥局,02-27673402,臺北市松山區饒河街204號,台北市松山區慈祐里20鄰饒河街204號,25.050743,121.57703500000001,,台北市,松山區
5901013460,光點延新藥局,02-27667795,台北市松山區延壽街101號,台北市松山區富泰里1鄰延壽街101號,25.057161999999998,121.56597,,台北市,松山區
5901013488,欣生藥局,02-27567611,臺北市松山區民生東路5段138巷1號,台北市松山區三民里11鄰民生東路五段138巷1號,25.058532,121.561699,,台北市,松山區
5901013497,民生盛康藥局,02-27460758,臺北市松山區民生東路5段204號,台北市松山區富泰里15鄰民生東路五段204號,25.058258,121.56477,,台北市,松山區
5901013504,杏一台北長庚藥局,02-25149463,臺北市松山區敦化北路199巷2弄3號,台北市松山區中華里3鄰敦化北路199巷2弄3號,25.055685,121.55003799999999,,台北市,松山區
5901013513,立赫民生藥局,02-27139200,臺北市松山區民生東路4段68號,台北市松山區精忠里3鄰民生東路四段68號,25.057856,121.55223000000001,,台北市,松山區
5901013522,大樹松山藥局,02-27562226,臺北市松山區民生東路5段107號,台北市松山區東榮里7鄰民生東路五段107號,25.058776,121.56013899999999,,台北市,松山區
5901020296,百立藥局,02-27327211,台北市大安區和平東路3段228巷66號1樓,台北市大安區芳和里15鄰和平東路三段228巷66號,25.020995000000003,121.553407,,台北市,大安區
5901020303,宏恩藥局,02-27000956,台北市大安區大安路1段181號,台北市大安區德安里13鄰大安路一段181號,25.036188,121.54611299999999,,台北市,大安區
5901020376,靜園藥局,02-27336390,台北市大安區和平東路2段118巷57之1號,台北市大安區龍淵里4鄰和平東路二段118巷57之1號,25.022541,121.54292099999999,,台北市,大安區
5901020385,延吉大藥局,02-27819227,台北市大安區延吉街153號1樓,台北市大安區正聲里13鄰延吉街153號,25.040657,121.554791,,台北市,大安區
5901020456,北陸藥局,02-27323594,台北市大安區和平東路3段278號1Ｆ,台北市大安區黎孝里15鄰和平東路三段278號,25.020998000000002,121.555866,,台北市,大安區
5901020465,杏友藥局,02-27079451,台北市大安區復興南路2段151巷25號,台北市大安區龍雲里8鄰復興南路二段151巷25號,25.028469,121.54463500000001,,台北市,大安區
5901020554,師大藥局,02-23623479,台北市大安區師大路99號1樓,台北市大安區古風里3鄰師大路99號,25.02271,121.52850900000001,,台北市,大安區
5901020563,施寶藥局,02-27114175,台北市大安區安東街50－5號1樓,台北市大安區誠安里7鄰安東街50之5號,25.042768,121.54256000000001,,台北市,大安區
5901020590,燕福藥局,02-23627307,台北市大安區羅斯福路3段283巷14弄14號之3,台北市大安區大學里24鄰羅斯福路三段283巷14弄14之3號,25.018166,121.53243300000001,,台北市,大安區
5901020616,龍護大藥局,02-23250686,台北市大安區大安路1段224巷7號1Ｆ,台北市大安區仁慈里4鄰大安路一段224巷7號,25.034014000000003,121.545445,,台北市,大安區
5901020634,新廣生藥局,02-27071221,台北市大安區仁愛路4段34號,台北市大安區德安里18鄰仁愛路四段34號,25.03762,121.546722,,台北市,大安區
5901020652,寶德藥局,02-27364240,台北市大安區樂利路105號1Ｆ,台北市大安區法治里5鄰樂利路105號,25.025123999999998,121.55238899999999,,台北市,大安區
5901020661,泰佑藥局,02-27056841,台北市大安區安和路2段72號1Ｆ,台北市大安區義安里15鄰安和路二段72號,25.030107,121.55173300000001,,台北市,大安區
5901020670,杏安堂藥局,02-27517636,台北市大安區忠孝東路4段77巷30號1樓,台北市大安區光武里7鄰忠孝東路四段77巷30號,25.042921,121.547142,,台北市,大安區
5901020689,四維藥局,02-27094222,台北市大安區復興南路2段151巷43號1樓,台北市大安區龍雲里14鄰復興南路二段151巷43號,25.028454999999997,121.545447,假日可先打電話聯絡,台北市,大安區
5901020698,羅斯福藥局,02-23699606,台北市大安區羅斯福路3段283巷9弄3號,台北市大安區大學里13鄰羅斯福路三段283巷9弄3號,25.019031,121.531295,,台北市,大安區
5901020732,赫慶藥局,02-27063497,台北市大安區瑞安街208巷11弄5號1樓,台北市大安區龍圖里14鄰瑞安街208巷11弄5號,25.028660000000002,121.54080900000001,,台北市,大安區
5901020787,吉成藥局,02-23636475,台北市大安區泰順街7號,台北市大安區龍坡里14鄰泰順街7號,25.025568,121.531585,,台北市,大安區
5901020858,順天堂藥局,02-23627149,台北市大安區龍泉街96號,台北市大安區古風里3鄰龍泉街96號,25.022564000000003,121.52920300000001,,台北市,大安區
5901020876,大興藥局,02-27053369,台北市大安區通化街39巷50弄15號1樓,台北市大安區通化里17鄰通化街39巷50弄15號,25.030555,121.555477,,台北市,大安區
5901020901,辰安藥局,02-27119536,台北市大安區大安路1段31巷28號,台北市大安區光武里11鄰大安路一段31巷28號,25.043848,121.54718100000001,,台北市,大安區
5901021122,青康藥局,02-27086623,台北市大安區延吉街248號1Ｆ,台北市大安區光信里25鄰延吉街248號,25.035316,121.555681,,台北市,大安區
5901021248,永誠藥局,02-27520273,台北市大安區忠孝東路4段216巷25之1號,台北市大安區車層里14鄰忠孝東路四段216巷25之1號,25.039967,121.553063,,台北市,大安區
5901021346,正昌藥局,02-27540070,台北市大安區通化街38巷9號1樓,台北市大安區通安里7鄰通化街38巷9號,25.030983,121.553716,,台北市,大安區
5901023304,麗樺藥師藥局,02-23952628,台北市大安區麗水街3號,台北市大安區永康里4鄰麗水街3號,25.032246,121.52903799999999,,台北市,大安區
5901023313,安和藥局,02-27092349,台北市大安區安和路1段102巷3號,台北市大安區敦安里3鄰安和路一段102巷3號,25.034332,121.55194099999999,,台北市,大安區
5901023331,佑安藥局,02-27069339,台北市大安區延吉街233巷9號,台北市大安區光信里10鄰延吉街233巷9號,25.037083,121.55613000000001,,台北市,大安區
5901023386,弘昇藥局,02-27110061,台北市大安區復興南路1段107巷32號,台北市大安區光武里24鄰復興南路一段107巷32號,25.043494,121.545787,上午11點以後至晚上11點,台北市,大安區
5901023411,長虹藥局,02-27210232,台北市大安區忠孝東路4段216巷 63號,台北市大安區車層里22鄰忠孝東路四段216巷63號,25.038204,121.55305800000001,,台北市,大安區
5901023519,惠盈藥局,02-87321366,台北市大安區辛亥路2段171巷31號,台北市大安區龍淵里13鄰辛亥路二段171巷31號,25.022971,121.54119299999999,,台北市,大安區
5901023523,聯合仁愛藥局,02-27039269,台北市大安區大安路1段157巷3號,台北市大安區德安里18鄰大安路一段157巷3號,25.037308,121.546319,,台北市,大安區
5901023591,一心藥局,02-27321818,台北市大安區和平東路3段238號,台北市大安區黎孝里1鄰和平東路三段238號,25.021906,121.55487600000001,星期日,台北市,大安區
5901023653,信安健康藥局,02-27084858,台北市大安區仁愛路4段122巷58號,台北市大安區敦安里15鄰仁愛路四段122巷58號,25.033923,121.55011699999999,,台北市,大安區
5901023680,新富川藥局,02-27114758,台北市大安區大安路1段51巷4號,台北市大安區光武里7鄰大安路一段51巷4號,25.043029,121.546392,無提供急診服務,台北市,大安區
5901023706,聖英藥局,02-27055851,台北市大安區仁愛路4段266巷15弄18號,台北市大安區敦煌里16鄰仁愛路四段266巷15弄18號,25.036542,121.553997,,台北市,大安區
5901023724,元氣生活健保藥局,02-27060580,台北市大安區新生南路1段161巷10號,台北市大安區民炤里12鄰新生南路一段161巷10號,25.034545,121.53466200000001,,台北市,大安區
5901023831,康乃馨藥局,02-23257097,台北市大安區建國南路1段327號,台北市大安區和安里21鄰建國南路一段327號,25.034806,121.538211,週一至週六09:00-21:00,台北市,大安區
5901023886,世康藥局,02-27015758,台北市大安區延吉街246號,台北市大安區光信里23鄰延吉街246號,25.035492,121.555605,,台北市,大安區
5901023902,惠良藥局,02-27387872,台北市大安區和平東路3段93－1號,台北市大安區全安里5鄰和平東路三段93之1號,25.024615,121.550727,,台北市,大安區
5901023966,愛維康生活藥局,02-27059791,台北市大安區四維路170巷21號,台北市大安區龍雲里16鄰四維路170巷21號,25.028317,121.54703400000001,,台北市,大安區
5901024007,古亭健康人生藥局,02-23660895,台北市大安區羅斯福路2段83號,台北市大安區古莊里5鄰羅斯福路二段83號,25.025723,121.52369099999999,9:30-21:55,台北市,大安區
5901024098,杏一瑞安藥局,02-27096710,台北市大安區瑞安街208巷11弄1號,台北市大安區龍圖里14鄰瑞安街208巷11弄1號,25.028661,121.54064699999999,,台北市,大安區
5901024114,好安心藥局,02-23772166,台北市大安區和平東路2段98之2號,台北市大安區龍淵里5鄰和平東路二段98之2號,25.024932,121.541503,週日有時營業，不定期營業,台北市,大安區
5901024123,中山樂方藥局,02-27050622,台北市大安區仁愛路4段112巷12號,台北市大安區敦安里17鄰仁愛路四段112巷12號,25.036422,121.54957900000001,,台北市,大安區
5901024178,天康忠孝藥局,02-77137763,台北市大安區忠孝東路3段223－1號,台北市大安區昌隆里1鄰忠孝東路三段223之1號,25.041856,121.54003600000001,過年期間照常營業,台北市,大安區
5901024212,中力信義藥局,02-23250266,台北市大安區信義路4段51號,台北市大安區仁慈里2鄰信義路四段51號,25.033544,121.544997,,台北市,大安區
5901024221,安居藥局,02-23773537,台北市大安區安居街19號,台北市大安區黎孝里8鄰安居街19號,25.020856,121.55493500000001,,台北市,大安區
5901024310,躍獅新生藥局,02-23623367,台北市大安區和平東路2段20號,台北市大安區龍門里7鄰和平東路二段20號,25.025664000000003,121.536221,,台北市,大安區
5901024347,博大藥局,02-27027858,台北市大安區安和路2段65號,台北市大安區通安里6鄰安和路二段65號,25.030627,121.552568,,台北市,大安區
5901024427,博昱仁愛藥局,02-87739258,臺北市大安區仁愛路4段65號,台北市大安區仁愛里17鄰仁愛路四段65號,25.038194,121.546869,8:00-22:00,台北市,大安區
5901024472,忠孝康承健保藥局,02-87733378,台北市大安區復興南路1段107巷4號,台北市大安區光武里25鄰復興南路一段107巷4號,25.043565,121.544399,,台北市,大安區
5901024481,微笑藥師藥局,02-27009655,台北市大安區信義路3段31巷4號,台北市大安區民炤里10鄰信義路三段31巷4號,25.034007,121.534458,執業時間9點到21點,台北市,大安區
5901024490,明星大藥局,02-27023747,台北市大安區光復南路430之1號,台北市大安區光信里5鄰光復南路430之1號,25.036184,121.557375,,台北市,大安區
5901024516,博昱師大藥局,02-23696966,台北市大安區羅斯福路3段189號,台北市大安區古風里6鄰羅斯福路三段189號,25.02109,121.52806899999999,執業時間8點到24點,台北市,大安區
5901024525,國泰維康藥局,02-27542185,台北市大安區仁愛路4段266巷15弄20號,台北市大安區敦煌里16鄰仁愛路四段266巷15弄20號,25.03654,121.5541,,台北市,大安區
5901024543,奇威藥局,02-23651110,台北市大安區雲和街93號,台北市大安區龍泉里1鄰雲和街93號,25.023386,121.531152,,台北市,大安區
5901024632,艾登安和藥局,02-27015201,台北市大安區安和路1段123號,台北市大安區敦煌里14鄰安和路一段123號,25.034881,121.552681,禮拜天執業時間11點到19點,台北市,大安區
5901024669,百岳藥局,02-27551037,台北市大安區和平東路2段311巷11號,台北市大安區群賢里7鄰和平東路二段311巷11號,25.025138000000002,121.545222,"執業時間早上時段9點到12點,晚上時段18點到21點",台北市,大安區
5901024678,大安健康人生藥局,02-27025553,台北市大安區信義路4段34號,台北市大安區住安里4鄰信義路四段34號,25.033159,121.544742,,台北市,大安區
5901024687,博昱大藥局,02-23776199,台北市大安區樂業街148號、150號,台北市大安區黎元里8鄰樂業街148號,25.019978,121.55295,,台北市,大安區
5901024696,仁華藥局,02-27336762,台北市大安區臥龍街155號,台北市大安區黎元里14鄰臥龍街155號,25.018342999999998,121.55109399999999,,台北市,大安區
5901024703,吾家藥局,02-27066425,台北市大安區信義路4段265巷6之1號,台北市大安區敦煌里8鄰信義路四段265巷6之1號,25.033723000000002,121.55420500000001,,台北市,大安區
5901024712,早安藥局,02-27002209,台北市大安區建國南路2段151巷42號,台北市大安區新龍里2鄰建國南路二段151巷42號,25.028648,121.539578,,台北市,大安區
5901024721,麗泰藥局,02-27079595,台北市大安區復興南路2段151巷4號,台北市大安區群賢里4鄰復興南路二段151巷4號,25.028319,121.543998,,台北市,大安區
5901024758,兆安健保藥局,02-27363069,台北市大安區通化街139號,台北市大安區臨江里7鄰通化街139號,25.02901,121.553977,,台北市,大安區
5901024767,杏一樂業藥局,02-27383194,台北市大安區樂業街162號,台北市大安區黎元里2鄰樂業街162號,25.019585,121.553459,,台北市,大安區
5901103183,OK藥師藥局,02-25170068,台北市中山區興安街95號,台北市中山區龍洲里11鄰興安街95號,25.056155,121.543465,,台北市,中山區
5901103192,昶青林森藥局,02-25639939,台北市中山區林森北路119巷52號,台北市中山區正義里11鄰林森北路119巷52號,25.050182,121.526852,,台北市,中山區
5901103209,麗恩藥局,02-25981982,台北市中山區林森北路575之5號,台北市中山區晴光里6鄰林森北路575之5號,25.065299,121.525798,,台北市,中山區
5901103227,建誠中西藥局,02-25158608,台北市中山區龍江路385之1號,台北市中山區下埤里6鄰龍江路385之1號,25.065106,121.541046,,台北市,中山區
5901103236,誠意中西藥局,02-25950951,台北市中山區林森北路613號,台北市中山區晴光里6鄰林森北路613號,25.066473000000002,121.525825,,台北市,中山區
5901103272,長安藥局,02-27772740,台北市中山區長安東路2段171－3號,台北市中山區力行里3鄰長安東路二段171之3號,25.048401000000002,121.54178600000002,上午9:30-晚上10:30,台北市,中山區
5901103325,仁一藥局,02-25711742,台北市中山區林森北路520號,台北市中山區聚葉里12鄰林森北路520號,25.062326000000002,121.52550600000001,,台北市,中山區
5901010290,健全藥局,02-27128293,台北市松山區民權東路3段103巷20號,台北市松山區民福里5鄰民權東路三段103巷20號,25.063269000000002,121.54491100000001,,台北市,松山區
5901010389,李得安藥局,02-87871655,台北市松山區民生東路5段36巷8弄11號1樓,台北市松山區介壽里18鄰民生東路五段36巷8弄11號,25.057333,121.55985600000001,,台北市,松山區
5901010496,瑞昌大藥局,02-27151881,台北市松山區民權東路3段103巷10號,台北市松山區民福里5鄰民權東路三段103巷10號,25.062984,121.544918,,台北市,松山區
5901010576,合生藥局,02-27602932,台北市松山區南京東路5段123巷45號1樓,台北市松山區東光里16鄰南京東路五段123巷45號,25.053638,121.560748,執業時段請電洽藥局,台北市,松山區
5901011662,上允藥局,02-27696905,台北市松山區民生東路5段78號,台北市松山區介壽里14鄰民生東路五段78號,25.058364,121.559049,,台北市,松山區
5901011699,建東大藥局,02-27676237,台北市松山區三民路97號1樓,台北市松山區三民里4鄰三民路97號,25.057235000000002,121.56339799999999,,台北市,松山區
5901011733,和諧藥局,02-27568580,台北市松山區民生東路5段148號2樓,台北市松山區三民里13鄰民生東路五段148號,25.058494,121.562151,,台北市,松山區
5901011751,德恩藥師藥局,02-27782829,台北市松山區八德路2段378號1樓,台北市松山區中崙里7鄰八德路二段378號,25.047971,121.54614199999999,,台北市,松山區
5901011760,延壽藥局,02-27685159,台北市松山區延壽街327號,台北市松山區介壽里5鄰延壽街327號,25.056786,121.560363,,台北市,松山區
5901011975,萬泰藥局,02-27135891,台北市松山區敦化北路222巷38號,台北市松山區民有里14鄰敦化北路222巷38號,25.059943,121.547103,,台北市,松山區
5901021382,建如藥局,02-27331456,台北市大安區和平東路3段228巷11號1Ｆ,台北市大安區黎孝里3鄰和平東路三段228巷11號,25.021742,121.55434199999999,,台北市,大安區
5901021408,生百藥局,02-27371011,台北市大安區臨江街124號,台北市大安區通安里11鄰臨江街124號,25.030235,121.553878,,台北市,大安區
5901022521,台安藥局,02-27549099,台北市大安區和平東路2段353號1樓,台北市大安區群賢里8鄰和平東路二段353號,25.024869,121.54616299999999,,台北市,大安區
5901022601,生光藥局,02-27780862,台北市大安區忠孝東路3段248巷2號,台北市大安區義村里8鄰忠孝東路三段248巷2號,25.041353,121.541207,,台北市,大安區
5901022763,佳美藥局,02-27054987,台北市大安區復興南路1段261之3號1樓,台北市大安區仁慈里15鄰復興南路一段261之3號,25.036222,121.543877,,台北市,大安區
5901022898,永康藥局,02-23279362,台北市大安區麗水街6之2號,台北市大安區永康里6鄰麗水街6之2號,25.032891,121.528995,,台北市,大安區
5901023073,世中欣藥局,02-23938947,台北市大安區永康街2巷8號,台北市大安區永康里5鄰永康街2巷8號,25.033154,121.529407,,台北市,大安區
5901023091,加豐藥局,02-27219678,台北市大安區忠孝東路3段216巷3弄1號1樓,台北市大安區義村里9鄰忠孝東路三段216巷3弄1號,25.041255,121.54026499999999,,台北市,大安區
5901023153,崇光藥局,02-27217958,台北市大安區忠孝東路3段305號7樓之3,台北市大安區誠安里10鄰忠孝東路三段305號,25.041887,121.54354199999999,,台北市,大安區
5901023215,大愛健康藥局,02-27092156,台北市大安區敦化南路2段63巷65號,台北市大安區義安里12鄰敦化南路二段63巷65號,25.031031,121.551984,,台北市,大安區
5901024801,平安藥師藥局,02-27010057,台北市大安區建國南路2段223號,台北市大安區龍生里15鄰建國南路二段223號,25.026332,121.53804099999999,,台北市,大安區
5901024810,博興藥局,02-23256668,台北市大安區四維路198巷28號,台北市大安區群英里31鄰四維路198巷28號,25.026614000000002,121.54596399999998,,台北市,大安區
5901024829,威康藥局,02-27061149,台北市大安區和平東路2段255之1號,台北市大安區群賢里5鄰和平東路二段255之1號,25.025002,121.543754,,台北市,大安區
5901024838,昶青藥局,02-27515678,台北市大安區濟南路3段22之1號,台北市大安區民輝里4鄰濟南路三段22之1號,25.040086,121.534581,,台北市,大安區
5901024856,杏一台北國泰藥局,02-27011785,台北市大安區仁愛路4段266巷15弄4號,台北市大安區敦煌里16鄰仁愛路四段266巷15弄4號,25.036554000000002,121.55318500000001,,台北市,大安區
5901024865,沛林東區生活藥_藥局,02-27763759,台北市大安區敦化南路1段187巷17號,台北市大安區建安里14鄰敦化南路一段187巷17號,25.042668,121.550149,,台北市,大安區
5901024874,奇異果大安藥局,02-23250891,台北市大安區大安路1段190號,台北市大安區仁慈里9鄰大安路一段190號,25.035726,121.54588799999999,,台北市,大安區
5901024883,躍獅敦和藥局,02-23785767,台北市大安區和平東路3段10號,台北市大安區虎嘯里1鄰和平東路三段10號,25.024527,121.546993,,台北市,大安區
5901024892,太醫藥局,02-23685125,台北市大安區師大路12號,台北市大安區古莊里2鄰師大路12號,25.025681,121.52826999999999,,台北市,大安區
5901024909,康維健保藥局,02-27000120,台北市大安區敦化南路1段329巷15號,台北市大安區敦安里15鄰敦化南路一段329巷15號,25.034246,121.550022,,台北市,大安區
5901102855,錦西春天生活藥局,02-25312658,台北市中山區錦西街10號,台北市中山區集英里7鄰錦西街10號,25.06024,121.521574,,台北市,中山區
5901102873,盛康藥局,02-25969580,台北市中山區吉林路399號,台北市中山區新喜里16鄰吉林路399號,25.065872,121.53050800000001,,台北市,中山區
5901102891,中山藥局,02-25236979,臺北市中山區林森北路128號,台北市中山區正得里16鄰林森北路128號,25.05125,121.52503999999999,,台北市,中山區
5901102962,中興藥局,02-27774628,台北市中山區長安東路2段226號,台北市中山區朱崙里15鄰長安東路二段226號,25.048181,121.542709,"營業時間如有異動,以藥局公告為準",台北市,中山區
5901102971,保德明水藥局,02-85097769,台北市中山區北安路608巷4弄1號,台北市中山區成功里3鄰北安路608巷4弄1號,25.081912,121.549291,,台北市,中山區
5901102999,廣福中西藥局,02-25189489,台北市中山區錦州街406號,台北市中山區江山里21鄰錦州街406號,25.060114000000002,121.54166000000001,"春節期間2/2,2/4營業,其餘休息.",台北市,中山區
5901103030,錦康活力藥局,02-25158282,台北市中山區民生東路2段147巷11弄1號地下,台北市中山區松江里14鄰民生東路二段147巷11弄1號,25.060024,121.53504,,台北市,中山區
5901103110,大直健康藥局,02-25323310,台北市中山區北安路591號,台北市中山區大直里18鄰北安路591號,25.081944,121.548643,,台北市,中山區
5901103147,娸淇藥局,02-25082762,台北市中山區伊通街95號,台北市中山區中央里9鄰伊通街95號,25.053055,121.534894,,台北市,中山區
5901113545,和康健保藥局,02-27997202,台北市內湖區文德路66巷41號,台北市內湖區瑞陽里18鄰文德路66巷41號,25.077203,121.581781,9:00-21點,台北市,內湖區
5901113554,葫光藥局,02-26336611,台北市內湖區康寧路3段54巷6號,台北市內湖區葫洲里12鄰康寧路三段54巷6號,25.071679,121.608993,國定假日可執行調劑業務,台北市,內湖區
5901113563,耀元藥局,02-26337369,台北市內湖區康樂街150號,台北市內湖區樂康里23鄰康樂街150號,25.072627,121.61924099999999,,台北市,內湖區
5901120022,旭村藥局,02-27820948,台北市南港區興華路112號,台北市南港區東新里1鄰興華路112號,25.056607999999997,121.60554199999999,,台北市,南港區
5901120139,裕成藥局,02-27851227,台北市南港區玉成街166巷13號,台北市南港區萬福里19鄰玉成街166巷13號,25.044334,121.583448,,台北市,南港區
5901120175,新錦安藥局,02-27825218,台北市南港區南港路3段34號,台北市南港區西新里9鄰南港路三段34號,25.054292,121.592216,,台北市,南港區
5901120184,仁泰藥局,02-27855464,台北市南港區同德路28號,台北市南港區萬福里9鄰同德路28號,25.045108,121.58408600000001,,台北市,南港區
5901120308,加欣藥局,02-27836222,台北市南港區南港路2段26號,台北市南港區東明里16鄰南港路二段26號,25.054251,121.605398,,台北市,南港區
5901121421,祥安藥局,02-26547322,台北市南港區中坡南路25號,台北市南港區鴻福里14鄰中坡南路25號,25.043288,121.583168,,台北市,南港區
5901121449,麗康藥局,02-26515236,台北市南港區同德路51號,台北市南港區萬福里4鄰同德路51號,25.045641,121.584753,,台北市,南港區
5901010058,安郁藥局,02-25774551,台北市松山區八德路3段12巷51弄16號1樓,台北市松山區敦化里22鄰八德路三段12巷51弄16號,25.046086,121.55118200000001,,台北市,松山區
5901010076,榮星藥局,02-27124696,台北市松山區南京東路4段133巷5弄1號,台北市松山區東勢里1鄰南京東路四段133巷5弄1號,25.052137,121.55523500000001,,台北市,松山區
5901010085,安世藥局,02-27133405,台北市松山區南京東路4段133巷5弄9號,台北市松山區東勢里1鄰南京東路四段133巷5弄9號,25.052139999999998,121.55556200000001,,台北市,松山區
5901010094,明一藥局,02-27691654,台北市松山區南京東路5段59巷28弄25號1樓,台北市松山區東光里9鄰南京東路五段59巷28弄25號,25.052704000000002,121.558168,,台北市,松山區
5901010165,傑安藥局,02-27524155,台北市松山區八德路2段437巷7弄8號1樓,台北市松山區中正里5鄰八德路二段437巷7弄8號,25.049139,121.54733700000001,,台北市,松山區
5901010174,仁弘藥局,02-27136764,台北市松山區民生東路3段113巷25弄6號1樓,台北市松山區民有里7鄰民生東路三段113巷25弄6號,25.059485000000002,121.546586,,台北市,松山區
5901010192,益華藥局,02-27624898,台北市松山區民生東路5段138巷6號,台北市松山區介壽里1鄰民生東路五段138巷6號,25.058274,121.56154599999999,,台北市,松山區
5901010272,德靈藥局,02-27646998,台北市松山區富錦街548號,台北市松山區新益里6鄰富錦街548號,25.061775,121.566673,節期間2/4-2/10休息. .,台北市,松山區
5901024918,康祥藥局,02-27817891,台北市大安區忠孝東路4段216巷21號,台北市大安區車層里14鄰忠孝東路四段216巷21號,25.040254,121.553063,,台北市,大安區
5901024927,高特敦南藥局,092-0318305,台北市大安區信義路4段115號,台北市大安區德安里2鄰信義路四段115號,25.033472,121.548199,,台北市,大安區
5901090074,慈仁藥局,02-25572733,台北市大同區歸綏街261號1樓,台北市大同區大有里13鄰歸綏街261號,25.058322,121.51013,,台北市,大同區
5901090092,三省大藥局,02-25353536,台北市大同區民族西路303巷19號1樓,台北市大同區鄰江里10鄰民族西路303巷19號,25.069264999999998,121.510236,,台北市,大同區
5901090127,三銘大藥局,02-25583392,台北市大同區迪化街1段80號,台北市大同區永樂里18鄰迪化街一段80號,25.055808,121.50990900000001,,台北市,大同區
5901090154,柯藥局,02-25948515,台北市大同區重慶北路3段335巷6號,台北市大同區保安里7鄰重慶北路三段335巷6號,25.074519,121.514367,,台北市,大同區
5901090181,時春藥局,02-25597918,台北市大同區赤峰街4號,台北市大同區光能里16鄰赤峰街4號,25.053557,121.51911499999999,,台北市,大同區
5901090216,裕仁藥局,02-25910064,台北市大同區迪化街2段270號－1,台北市大同區鄰江里22鄰迪化街二段270號,25.070683,121.51153300000001,,台北市,大同區
5901090243,建祥藥局,02-25556476,台北市大同區寧夏路17號、17－1號,台北市大同區星明里6鄰寧夏路17號,25.05485,121.51504399999999,,台北市,大同區
5901090270,立生藥局,02-25925727,台北市大同區延平北路3段61號－3,台北市大同區隆和里10鄰延平北路三段61之2號,25.065721,121.51114299999999,,台北市,大同區
5901090289,正利民藥局,02-25924842,台北市大同區延平北路3段105號,台北市大同區國慶里17鄰延平北路三段105號,25.06806,121.511035,,台北市,大同區
5901090323,泰元藥局,02-25914592,台北市大同區哈密街91號,台北市大同區保安里3鄰哈密街91號,25.07303,121.514619,"以上營業時間僅供參考, 實際營業時間以現場為主",台北市,大同區
5901090369,保慶藥局,02-25538988,台北市大同區保安街21號,台北市大同區延平里1鄰保安街21號,25.059258,121.51294399999999,上午9時至晚間10時30分,台北市,大同區
5901091473,快安藥局,02-25561925,台北市大同區南京西路282、284號,台北市大同區玉泉里11鄰南京西路462號,25.053588,121.50765600000001,,台北市,大同區
5901091544,得意藥師藥局,02-25534294,台北市大同區延平北路2段229號,台北市大同區延平里5鄰延平北路二段229號,25.060289,121.511467,,台北市,大同區
5901091624,健康美藥局,02-25976707,台北市大同區民族西路165號,台北市大同區至聖里29鄰民族西路165號,25.068722,121.515522,,台北市,大同區
5901091688,宏泰藥師藥局,02-25957025,台北市大同區酒泉街131號,台北市大同區保安里1鄰酒泉街131號,25.072131,121.514477,,台北市,大同區
5901091759,儷安藥局,02-25578033,台北市大同區錦西街53巷16號,台北市大同區民權里15鄰錦西街53巷16號,25.060653,121.515832,,台北市,大同區
5901091820,富康藥局,02-25537782,台北市大同區延平北路2段126號,台北市大同區大有里4鄰延平北路二段126號,25.057334,121.511459,,台北市,大同區
5901091839,春鄰藥局,02-25492000,台北市大同區長安西路35號,台北市大同區建泰里1鄰長安西路35號,25.05036,121.519732,,台北市,大同區
5901091857,佳禾藥局,02-25953806,台北市大同區大龍街262號,台北市大同區至聖里26鄰大龍街262號,25.070609,121.515833,,台北市,大同區
5901091884,躍獅雙蓮藥局,02-25537551,台北市大同區涼州街4號,台北市大同區民權里10鄰涼州街4號,25.060776,121.514678,,台北市,大同區
5901091973,延平新聖安藥局,02-25923399,台北市大同區延平北路3段35號,台北市大同區隆和里10鄰延平北路三段35號,25.064747,121.511201,,台北市,大同區
5901091991,德芳藥局,02-25576869,台北市大同區民生西路91號,台北市大同區雙連里13鄰民生西路91號,25.057617999999998,121.519369,,台北市,大同區
5901092014,旭豐藥局,02-25853880,台北市大同區昌吉街96號,台北市大同區蓬萊里16鄰昌吉街96號,25.065824,121.515121,,台北市,大同區
5901092041,酒泉春天藥局,02-25977932,台北市大同區酒泉街94號、94號2樓,台北市大同區至聖里21鄰酒泉街94號,25.071934,121.514555,,台北市,大同區
5901092050,中興聯合藥局,02-25502952,台北市大同區鄭州路127號（實際營業地址：1樓）,台北市大同區玉泉里9鄰鄭州路127號,25.050354000000002,121.51078799999999,,台北市,大同區
5901092069,躍獅遠東藥局,02-25594835,台北市大同區南京西路374號（實際營業地址：1樓）,台北市大同區永樂里9鄰南京西路374號,25.053696,121.510636,,台北市,大同區
5901092078,大同民生藥局,02-25558886,台北市大同區民生西路128，130號,台北市大同區永樂里20鄰民生西路432號,25.056756,121.508478,,台北市,大同區
5901100057,百源堂大藥局,02-25364362,台北市中山區長安東路2段47－5號,台北市中山區興亞里13鄰長安東路二段47之5號,25.048572,121.532247,實際時間依個人情況而訂需以電話查詢,台北市,中山區
5901100066,名祥藥局,02-25036265,台北市中山區龍江路166號,台北市中山區朱馥里21鄰龍江路166號,25.055049,121.54028400000001,,台北市,中山區
5901100155,大信藥局,02-25719080,台北市中山區林森北路159巷6號,台北市中山區正義里15鄰林森北路159巷6號,25.051699,121.52554199999999,,台北市,中山區
5901100244,定好大藥局,02-25946788,台北市中山區農安街125巷34號,台北市中山區新庄里8鄰農安街125巷34號,25.065972,121.529758,,台北市,中山區
5901100333,明美藥局,02-25365419,台北市中山區長春路69號,台北市中山區中山里26鄰長春路69號,25.055022,121.526587,,台北市,中山區
5901100342,順泰藥局,02-25038916,台北市中山區錦州街266號,台北市中山區松江里5鄰錦州街266號,25.060253,121.53475,,台北市,中山區
5901100422,滿順藥局,02-25075283,台北市中山區伊通街54號1樓,台北市中山區朱園里8鄰伊通街54號,25.051448,121.534655,春節期間看診時段請電洽,台北市,中山區
5901100431,長生藥局,02-25816210,台北市中山區松江路362巷55號1樓,台北市中山區新生里2鄰松江路362巷55號,25.062067000000003,121.531314,,台北市,中山區
5901100440,優豐藥局,02-25602565,台北市中山區民生東路1段32號,台北市中山區中山里11鄰民生東路一段32號,25.057935,121.52422299999999,,台北市,中山區
5901100495,能康藥局,02-25429426,台北市中山區長春路46號,台北市中山區康樂里7鄰長春路46號,25.054818,121.52562900000001,,台北市,中山區
5901100628,貢玄藥局,02-25637847,台北市中山區錦州街207號,台北市中山區新生里11鄰錦州街207號,25.060394,121.53196299999999,,台北市,中山區
5901100664,阿里藥局,02-25020638,台北市中山區錦州街251號,台北市中山區松江里5鄰錦州街251號,25.060392999999998,121.534194,,台北市,中山區
5901100717,榮昌藥局,02-25964593,台北市中山區雙城街17－3號,台北市中山區恆安里11鄰雙城街17之3號,25.064631,121.52441499999999,,台北市,中山區
5901100735,華友藥局,02-25007159,台北市中山區龍江路356巷27號－1,台北市中山區行仁里15鄰龍江路356巷27號,25.066076000000002,121.53986200000001,,台北市,中山區
5901100771,良佑藥局,02-25916402,台北市中山區撫順街6－2號1樓,台北市中山區集英里20鄰撫順街6之2號,25.063669,121.52156699999999,,台北市,中山區
5901100799,立大藥局,02-25313844,台北市中山區吉林路144巷14號,台北市中山區中原里10鄰吉林路144巷14號,25.055984,121.529578,,台北市,中山區
5901100959,武璋大藥局,02-25072026,台北市中山區伊通街97號之2,台北市中山區中央里9鄰伊通街97之2號,25.053175,121.534894,,台北市,中山區
5901101072,長青藥局,02-25053160,台北市中山區興安街55號1樓,台北市中山區朱馥里27鄰興安街55號,25.056207,121.54188700000002,,台北市,中山區
5901101161,晏晟藥局,02-25851445,台北市中山區林森北路625號,台北市中山區圓山里2鄰林森北路625號,25.067034,121.52585900000001,,台北市,中山區
5901101205,大直藥局,02-25320522,台北市中山區北安路617號1樓,台北市中山區大直里18鄰北安路617號,25.082728,121.54883799999999,早上9點至晚上11點，農曆年節白天照常執業,台北市,中山區
5901101250,美日藥局,02-25631662,台北市中山區天津街66號1樓,台北市中山區正得里9鄰天津街66號,25.051364000000003,121.523274,春節停止服務{1/24至1/29}止共6天,台北市,中山區
5901101278,人人藥局,02-25630789,台北市中山區吉林路267號1樓,台北市中山區新生里2鄰吉林路267號,25.062089999999998,121.53039799999999,,台北市,中山區
5901101321,文德藥局,02-25181178,台北市中山區龍江路356巷19號1樓,台北市中山區行仁里15鄰龍江路356巷19號,25.066075,121.54008799999998,,台北市,中山區
5901101509,永直藥局,02-85098059,台北市中山區北安路595巷2弄6號,台北市中山區大直里25鄰北安路595巷2弄6號,25.081926,121.548295,,台北市,中山區
5901101536,展佑藥局,02-25232803,台北市中山區長春路146－1號,台北市中山區中吉里8鄰長春路146之1號,25.054728,121.53171100000002,,台北市,中山區
5901101607,蓁榛健康生活藥局,02-25099333,台北市中山區合江街100－2號1樓,台北市中山區江山里2鄰合江街100之2號,25.058454,121.53911000000001,,台北市,中山區
5901101625,中崙藥局,02-27114971,台北市中山區八德路2段307號,台北市中山區朱崙里16鄰八德路二段307號,25.047362,121.542608,,台北市,中山區
5901101652,祥泰藥局,02-25313097,台北市中山區林森北路136號,台北市中山區正得里16鄰林森北路136號,25.051419,121.52508700000001,,台北市,中山區
5901101796,得康藥局,02-25814889,台北市中山區林森北路405號,台北市中山區聚盛里17鄰林森北路405號,25.059432,121.525682,,台北市,中山區
5901101910,嘉恩藥局,02-25181418,台北市中山區錦州街321號,台北市中山區江寧里2鄰錦州街321號,25.060326,121.53850800000001,,台北市,中山區
5901101929,樂活苑藥局,02-25323296,台北市中山區北安路546號1樓,台北市中山區永安里9鄰北安路546號,25.08014,121.547952,,台北市,中山區
5901101992,大愛藥師藥局,02-25424723,台北市中山區吉林路255號1樓,台北市中山區新生里12鄰吉林路255號,25.061647,121.53039199999999,上午11時30分到晚上9點,台北市,中山區
5901102015,久大藥局,02-25111594,台北市中山區林森北路480號,台北市中山區聚葉里14鄰林森北路480號,25.061269,121.525478,,台北市,中山區
5901102060,專心藥局,02-25155847,台北市中山區伊通街112－2號,台北市中山區中央里4鄰伊通街112之2號,25.054257999999997,121.534725,早上11點半營業*(星期1-5),台北市,中山區
5901102408,康林藥局,02-25171867,台北市中山區興安街105號,台北市中山區龍洲里11鄰興安街105號,25.056166,121.54377,,台北市,中山區
5901102417,民生興安藥局,02-25018310,台北市中山區民生東路3段90－1號,台北市中山區龍洲里18鄰民生東路三段90之1號,25.057458999999998,121.54353799999998,,台北市,中山區
5901102444,啟美藥師藥局,02-25178032,台北市中山區錦州街282號,台北市中山區松江里15鄰錦州街282號,25.060239000000003,121.53523700000001,,台北市,中山區
5901102515,華康藥局,02-25211772,台北市中山區民生西路3巷2之1號,台北市中山區集英里1鄰民生西路3巷2之1號,25.058248000000003,121.52167299999999,,台北市,中山區
5901102560,龍江藥局,02-25023724,台北市中山區龍江路356巷14號,台北市中山區行仁里13鄰龍江路356巷14號,25.065913000000002,121.54029399999999,,台北市,中山區
5901102579,晴光藥局,02-25951393,台北市中山區農安街23之2號,台北市中山區晴光里8鄰農安街23之2號,25.065007,121.52453999999999,,台北市,中山區
5901102597,德惠藥局,02-25971131,台北市中山區德惠街122號,台北市中山區新庄里10鄰德惠街122號,25.066522,121.530042,,台北市,中山區
5901102631,金生藥局,02-87729808,台北市中山區長安東路2段167－1號,台北市中山區力行里4鄰長安東路二段167之1號,25.048426,121.54068000000001,國定假日(星期六)營業到PM6點,台北市,中山區
5901102677,興康源藥局,02-25311248,台北市中山區中山北路1段140巷8號,台北市中山區民安里9鄰中山北路一段140巷8號,25.051434,121.521402,,台北市,中山區
5901102686,富宥康藥局,02-25325277,臺北市中山區北安路608巷5弄22號,台北市中山區成功里7鄰北安路608巷5弄22號,25.082629,121.549627,,台北市,中山區
5901102748,淮濟藥師藥局,02-85098636,台北市中山區北安路570號〈實際營業地址：1樓及地下1樓〉,台北市中山區永安里10鄰北安路570號,25.080822,121.54855800000001,,台北市,中山區
5901102828,逸帆藥局,02-25222323,台北市中山區錦州街189號,台北市中山區新生里11鄰錦州街189號,25.060417,121.531244,,台北市,中山區
5901102837,正傑健保藥局,02-27310181,台北市中山區長安東路2段181號,台北市中山區力行里1鄰長安東路二段181號,25.048385,121.542569,,台北市,中山區
5901103334,大直小太陽藥局,02-85093208,台北市中山區北安路607之1號,台北市中山區大直里18鄰北安路607之1號,25.08241,121.54876200000001,,台北市,中山區
5901103343,王中興藥局,02-25034281,台北市中山區龍江路273號,台北市中山區江山里20鄰龍江路273號,25.059556,121.540826,,台北市,中山區
5901103352,美康正康藥局,02-25323077,台北市中山區北安路616之1號、618號2樓之1,台北市中山區成功里2鄰北安路616之1號,25.082426,121.549052,,台北市,中山區
5901103405,大直永安藥局,02-25332125,台北市中山區北安路567之2號,台北市中山區大直里27鄰北安路567之2號,25.080728,121.548172,,台北市,中山區
5901103414,元宏藥局,02-25339728,台北市中山區北安路458巷41弄49號,台北市中山區永安里7鄰北安路458巷41弄49號,25.079401,121.546458,晚間由16:30營業至21:30,台北市,中山區
5901103423,農安藥局,02-25959293,台北市中山區農安街18之1號,台北市中山區恆安里11鄰農安街18之1號,25.064832,121.524773,國定假日執行調劑業務,台北市,中山區
5901103450,東東藥局,02-25031730,台北市中山區長春路257之2號,台北市中山區朱馥里22鄰長春路257之2號,25.054769,121.54078799999999,國定假日仍執行調劑業務,台北市,中山區
5901103469,聖晨藥局,02-25960359,台北市中山區農安街140號,台北市中山區新福里1鄰農安街140號,25.064712,121.53216499999999,國定假日不執行調劑業務,台北市,中山區
5901103487,錦州春天生活藥局,02-25213586,台北市中山區錦州街213號、213號2樓,台北市中山區新生里11鄰錦州街213號,25.060392,121.532103,國定假日仍執行調劑業務,台北市,中山區
5901103496,杏一龍錦藥局,02-25174618,台北市中山區龍江路264號,台北市中山區江山里16鄰龍江路264號,25.060105,121.54064,國定假日亦值行調劑業務,台北市,中山區
5901103512,大樹龍江藥局,02-25035666,台北市中山區龍江路242號,台北市中山區江山里11鄰龍江路242號,25.058885,121.54061200000001,國定假日仍執行調劑業務,台北市,中山區
5901103521,中華藥局,02-25997888,台北市中山區農安街45之1號,台北市中山區晴光里7鄰農安街45之1號,25.064982,121.526678,,台北市,中山區
5901103530,農安盛康藥局,02-25038205,台北市中山區農安街267號,台北市中山區行政里6鄰農安街267號,25.064764999999998,121.53580900000001,國定假日仍執行調劑業務,台北市,中山區
5901103549,康廷藥局,02-25335890,台北市中山區北安路611號,台北市中山區大直里18鄰北安路611號,25.082531,121.54879,國定假日仍執行調劑業務,台北市,中山區
5901103558,佳頤中西藥局,02-25641479,台北市中山區長春路147之1號,台北市中山區中吉里10鄰長春路147之1號,25.054952,121.53234599999999,國定假日仍執行調劑業務,台北市,中山區
5901103576,康銓藥局,02-25039393,台北市中山區農安街174號,台北市中山區行政里7鄰農安街174號,25.064567999999998,121.534641,國定假日仍執行調劑業務,台北市,中山區
5901103585,禾全藥局,02-25165721,台北市中山區龍江路332號,台北市中山區行仁里7鄰龍江路332號,25.065323,121.540871,國定假日仍執行調劑業務,台北市,中山區
5901110080,葛蘭素藥局,02-27997824,台北市內湖區內湖路2段103巷128號1樓,台北市內湖區湖濱里4鄰內湖路二段103巷128號,25.084524,121.580821,,台北市,內湖區
5901110133,泰成藥局,02-27921231,台北市內湖區內湖路3段135號1樓,台北市內湖區金龍里19鄰內湖路三段135號,25.086853,121.589851,,台北市,內湖區
5901110268,赫得藥局,02-26328642,台北市內湖區康樂街72巷17弄4號1Ｆ,台北市內湖區東湖里11鄰康樂街72巷17弄4號,25.069755999999998,121.61783799999999,,台北市,內湖區
5901110302,富盛藥局,02-27908667,台北市內湖區成功路4段61巷25弄12號1樓,台北市內湖區紫星里14鄰成功路四段61巷25弄12號,25.080375,121.59263500000002,,台北市,內湖區
5901110311,永安藥局,02-26586658,台北市內湖區文德路210巷30弄48號,台北市內湖區紫陽里21鄰文德路210巷30弄48號,25.077228,121.585191,,台北市,內湖區
5901110339,富山藥局,02-27996446,台北市內湖區麗山街364巷2號1樓,台北市內湖區麗山里6鄰麗山街364巷2號,25.08168,121.572833,,台北市,內湖區
5901110393,明湖藥局,02-26313515,台北市內湖區東湖路7巷27號1Ｆ,台北市內湖區安湖里2鄰東湖路7巷27號,25.069705,121.61246799999999,,台北市,內湖區
5901110446,清白藥局,02-26305743,台北市內湖區東湖路108號,台北市內湖區五分里8鄰東湖路108號,25.068277,121.615674,,台北市,內湖區
5901110624,宏光藥局,02-27919068,台北市內湖區成功路2段221號1樓,台北市內湖區寶湖里12鄰成功路二段221號,25.067378,121.590855,,台北市,內湖區
5901111863,杏佳藥局,02-27915726,台北市內湖區康寧路1段51號,台北市內湖區紫星里5鄰康寧路一段51號,25.08033,121.591996,,台北市,內湖區
5901111890,安康藥局,02-26327675,台北市內湖區安康路482號,台北市內湖區五分里3鄰安康路482號,25.06785,121.615788,,台北市,內湖區
5901111934,至康藥局,02-26580022,台北市內湖區內湖路1段737巷19弄1號,台北市內湖區港富里26鄰內湖路一段737巷19弄1號,25.079245999999998,121.578502,,台北市,內湖區
5901112011,文新藥局,02-87978865,台北市內湖區文湖街7－5號1樓,台北市內湖區西康里4鄰文湖街7之5號,25.085442999999998,121.55989699999999,,台北市,內湖區
5901112100,盧狄聯合藥局,02-26308897,台北市內湖區康寧路3段189巷57號,台北市內湖區明湖里15鄰康寧路三段189巷57號,25.071331,121.612874,,台北市,內湖區
5901112351,康信藥局,02-26342088,台北市內湖區民權東路6段296巷29號,台北市內湖區葫洲里9鄰民權東路六段296巷29號,25.072031,121.606229,,台北市,內湖區
5901112413,維安藥局,02-27944520,台北市內湖區成功路3段174巷23號,台北市內湖區內湖里12鄰成功路三段174巷23號,25.081433999999998,121.590636,看診時間:早上8:30-晚上10:30,台北市,內湖區
5901112593,康健藥局,02-26305825,台北市內湖區康樂街80號,台北市內湖區東湖里9鄰康樂街80號,25.070147,121.61885900000001,,台北市,內湖區
5901112600,匯安藥局,02-26579255,台北市內湖區內湖路1段703之1號,台北市內湖區港富里1鄰內湖路一段703之1號,25.079636999999998,121.57741999999999,,台北市,內湖區
5901112682,富康東湖藥局,02-26323222,台北市內湖區東湖路119巷49弄16號,台北市內湖區東湖里8鄰東湖路119巷49弄16號,25.069879,121.617002,,台北市,內湖區
5901112726,高昱藥局,02-87519962,台北市內湖區陽光街321巷26號2樓之15,台北市內湖區湖元里18鄰陽光街321巷26號,25.072363,121.57861299999999,,台北市,內湖區
5901112762,樂活藥師藥局,02-27968052,台北市內湖區內湖路2段368號,台北市內湖區內湖里11鄰內湖路二段368號,25.082302,121.590978,,台北市,內湖區
5901112780,樂康藥妝藥局,02-26562110,台北市內湖區文德路117號,台北市內湖區紫陽里8鄰文德路117號,25.078704000000002,121.584052,,台北市,內湖區
5901112824,思恩藥局,02-27965808,台北市內湖區成功路4段61巷26號,台北市內湖區清白里30鄰成功路四段61巷26號,25.081205999999998,121.593226,,台北市,內湖區
5901112842,早安元氣藥局,02-27925994,台北市內湖區成功路4段53號1樓,台北市內湖區紫星里38鄰成功路四段53號,25.081666000000002,121.59208400000001,6/7 營業時間0830-1200,台北市,內湖區
5901112860,展恩藥局,02-27953041,台北市內湖區民權東路6段136巷4號,台北市內湖區湖元里1鄰民權東路六段136巷4號,25.068664000000002,121.587698,,台北市,內湖區
5901112879,壹零捌藥局,02-27910061,台北市內湖區成功路4段344號,台北市內湖區秀湖里12鄰成功路四段344號,25.084879,121.59963799999998,,台北市,內湖區
5901112977,瑞光藥局,02-87513365,台北市內湖區瑞光路212號,台北市內湖區港墘里20鄰瑞光路212號,25.075249,121.57627,AM08:00-PM22:00,台北市,內湖區
5901112995,昇龍藥局,02-26316783,台北市內湖區東湖路151號,台北市內湖區東湖里1鄰東湖路151號,25.0681,121.61736599999999,"早0800-1200,午1200-1700,晚1800-2200",台北市,內湖區
5901113018,桔子藥局,02-27930052,台北市內湖區內湖路2段333號,台北市內湖區內湖里3鄰內湖路二段333號,25.083185,121.59166699999999,"早0900-1200,午1400-1700,晚1900-2100",台北市,內湖區
5901113027,晟安藥局,02-87919320,台北市內湖區金龍路135號,台北市內湖區金龍里21鄰金龍路135號,25.085935,121.590203,"早0900-1200,午1200-1800,晚1800-2230",台北市,內湖區
5901113045,西湖藥局,02-26279291,台北市內湖區內湖路1段355號,台北市內湖區麗山里16鄰內湖路一段355號,25.0822,121.56926200000001,"早0900-1200,午1200-1700,晚1700-2230",台北市,內湖區
5901113081,宜昇優良藥局,02-26327817,台北市內湖區康寧路3段165巷23弄5號,台北市內湖區明湖里4鄰康寧路三段165巷23弄5號,25.071555,121.612039,,台北市,內湖區
5901113143,躍獅寶湖藥局,02-87928335,台北市內湖區民權東路6段123巷28號,台北市內湖區寶湖里3鄰民權東路六段123巷28號,25.070098,121.59281599999998,2/15~2/18營業至18:00,台北市,內湖區
5901113198,傑昇藥局,02-27925957,台北市內湖區內湖路2段227號,台北市內湖區湖濱里23鄰內湖路二段227號,25.081803,121.589045,,台北市,內湖區
5901113205,新安健保藥局,02-27932289,台北市內湖區新明路402號,台北市內湖區週美里14鄰新明路402號,25.054657000000002,121.57969299999999,,台北市,內湖區
5901113223,仕德安藥局,02-27961683,台北市內湖區新明路210號,台北市內湖區週美里2鄰新明路210號,25.057114000000002,121.584647,,台北市,內湖區
5901113232,躍獅東湖藥局,02-26347983,台北市內湖區金湖路378號,台北市內湖區金湖里6鄰金湖路378號,25.073617000000002,121.60467299999999,,台北市,內湖區
5901113250,大內湖藥局,02-27956286,台北市內湖區成功路4段12號,台北市內湖區內湖里13鄰成功路四段12號,25.081072,121.590993,,台北市,內湖區
5901113269,樂齡藥師藥局,02-27919707,台北市內湖區內湖路3段103號,台北市內湖區金龍里17鄰內湖路三段103號,25.086408,121.5909,"如有出訪,會暫時外出",台北市,內湖區
5901113296,喜越藥局,02-26271955,台北市內湖區內湖路1段285巷59弄7號,台北市內湖區西湖里21鄰內湖路一段285巷59弄7號,25.083767,121.56733,,台北市,內湖區
5901113303,禾康藥局,02-26562669,台北市內湖區內湖路1段296號,台北市內湖區西湖里13鄰內湖路一段296號,25.081775,121.568582,,台北市,內湖區
5901113312,江南大藥局,02-26595430,台北市內湖區文德路22巷9弄56號,台北市內湖區瑞陽里17鄰文德路22巷9弄56號,25.07656,121.579148,,台北市,內湖區
5901113330,躍獅大湖藥局,02-27945376,台北市內湖區成功路4段329號,台北市內湖區秀湖里11鄰成功路四段329號,25.084537,121.59897600000001,,台北市,內湖區
5901113349,澴山藥局,02-87978793,台北市內湖區環山路1段4號,台北市內湖區西康里26鄰環山路一段4號,25.082882,121.56539099999999,1/1晚上休息,台北市,內湖區
5901113367,瑞暉藥局,02-26276828,台北市內湖區文德路105號,台北市內湖區紫陽里8鄰文德路105號,25.078702,121.58368899999999,,台北市,內湖區
5901113376,內湖藥局,02-27940545,台北市內湖區康寧路1段116號,台北市內湖區紫星里2鄰康寧路一段116號,25.079484,121.593402,,台北市,內湖區
5901113385,躍獅康成藥局,02-87922031,台北市內湖區成功路4段61巷11號,台北市內湖區紫星里16鄰成功路四段61巷11號,25.081398,121.59277800000001,,台北市,內湖區
5901113394,富康文德藥局,02-26272000,台北市內湖區文德路22巷27弄4號,台北市內湖區瑞陽里22鄰文德路22巷27弄4號,25.076595,121.58,,台北市,內湖區
5901113401,躍獅麗湖藥局,02-26276160,台北市內湖區內湖路1段401之1號,台北市內湖區麗山里15鄰內湖路一段401之1號,25.081885,121.570567,,台北市,內湖區
5901113438,晶龍藥局,02-27956255,台北市內湖區成功路4段218號,台北市內湖區金龍里1鄰成功路四段218號,25.084566,121.59610500000001,國定假日仍執行調劑業務,台北市,內湖區
5901113456,佑全內湖康寧藥局,02-26346578,台北市內湖區康寧路3段39號、39號2樓、41號、43號,台北市內湖區金湖里17鄰康寧路三段39號,25.072642000000002,121.60776399999999,國定假日執行調劑業務,台北市,內湖區
5901113474,松達藥師藥局,02-26272167,台北市內湖區內湖路1段285巷65弄9號,台北市內湖區西湖里23鄰內湖路一段285巷65弄9號,25.084442000000003,121.567431,國定假日不執行調劑業務,台北市,內湖區
5901113509,安安藥局,02-87912187,台北市內湖區康寧路1段42號,台北市內湖區紫星里10鄰康寧路一段42號,25.080289,121.591774,國定假日仍執行調劑業務,台北市,內湖區
5901113527,杏一港墘藥局,02-87978746,台北市內湖區港墘路83號,台北市內湖區港富里8鄰港墘路83號,25.080776999999998,121.578084,國定假日仍執行調劑業務,台北市,內湖區
5901113536,原大藥局,02-26596358,台北市內湖區內湖路1段737巷50弄5號,台北市內湖區港富里6鄰內湖路一段737巷50弄5號,25.080578,121.57881200000001,調劑時間:上午8:00-晚上11點.國定假日仍執行調劑業務,台北市,內湖區
5901121501,親親藥局,02-26537635,台北市南港區玉成街140巷7號1樓,台北市南港區萬福里19鄰玉成街140巷7號,25.044788,121.58323600000001,,台北市,南港區
5901121574,上丞藥師藥局,02-26535589,台北市南港區成福路10號1樓,台北市南港區萬福里11鄰成福路10號,25.04574,121.585894,春節期間2/5-2/7休息,台北市,南港區
5901121583,健園藥局,02-27851567,台北市南港區研究院路1段19號1樓,台北市南港區新富里7鄰研究院路一段19號,25.054014000000002,121.61657,,台北市,南港區
5901121592,忠孝藥局,02-27862829,台北市南港區成福路16號,台北市南港區萬福里11鄰成福路16號,25.045612,121.585978,,台北市,南港區
5901121618,新東發藥局,02-27855190,台北市南港區成福路198號,台北市南港區百福里4鄰成福路198號,25.040919,121.58826699999999,春節期間看診時段請電洽,台北市,南港區
5901121627,富康活力藥局,02-27828810,台北市南港區研究院路1段101巷8號,台北市南港區新富里10鄰研究院路一段101巷8號,25.051809,121.61651200000001,,台北市,南港區
5901121672,亞博藥師藥局,02-27838090,台北市南港區興華路81號,台北市南港區南港里15鄰興華路81號,25.055447,121.606059,,台北市,南港區
5901121725,佳龍藥局,02-27885951,台北市南港區研究院路2段80號,台北市南港區中研里32鄰研究院路二段80號,25.045397,121.6152,,台北市,南港區
5901121734,湳港藥局,02-27892200,台北市南港區研究院路1段101巷12號,台北市南港區新富里10鄰研究院路一段101巷12號,25.051754000000003,121.616697,,台北市,南港區
5901121798,進慧藥局,02-27887049,台北市南港區研究院路1段163號,台北市南港區新富里14鄰研究院路一段163號,25.050309,121.6157,,台北市,南港區
5901121823,儀安健保藥局,02-27859893,台北市南港區同德路74號,台北市南港區萬福里11鄰同德路74號,25.045698,121.58528999999999,,台北市,南港區
5901121841,泓安藥局,02-27861083,臺北市南港區興華路75號,台北市南港區南港里23鄰興華路75號,25.055167,121.606128,,台北市,南港區
5901121850,健涵藥局,02-27837285,台北市南港區舊莊街1段147號,台北市南港區舊莊里4鄰舊莊街一段147號,25.039854000000002,121.620503,,台北市,南港區
5901121869,南港藥局,02-27829137,台北市南港區南港路一段166號,台北市南港區南港里10鄰南港路一段166號,25.055359,121.611883,,台北市,南港區
5901121896,順翔藥局,02-27824332,台北市南港區研究院路2段170號,台北市南港區九如里1鄰研究院路二段170號,25.037848999999998,121.61689399999999,,台北市,南港區
5901121903,景星藥局,02-27838816,台北市南港區南港路3段26號,台北市南港區西新里9鄰南港路三段26號,25.054342000000002,121.592399,,台北市,南港區
5901121912,成恩藥局,02-27856602,台北市南港區成福路23號,台北市南港區成福里28鄰成福路23號,25.044726999999998,121.586734,,台北市,南港區
5901121930,小藥師健保藥局,02-27867002,台北市南港區福德街320之1號,台北市南港區百福里8鄰福德街320之1號,25.039482999999997,121.587984,,台北市,南港區
5901121958,心亮藥局,02-27881677,台北市南港區玉成街66之7號,台北市南港區合成里4鄰玉成街66之7號,25.046922,121.581777,,台北市,南港區
5901121976,杏安藥局,02-27864119,台北市南港區昆陽街140巷16號,台北市南港區新光里4鄰昆陽街140巷16號,25.049692999999998,121.593791,,台北市,南港區
5901121985,勝安藥局,02-27828450,台北市南港區舊莊街1段165號,台北市南港區舊莊里4鄰舊莊街一段165號,25.039491,121.621117,,台北市,南港區
5901122026,杏一中坡藥局,02-27827418,台北市南港區中坡南路33號、35號,台北市南港區鴻福里17鄰中坡南路33號,25.043143,121.58338400000001,國定例假日執行調劑業務,台北市,南港區
5901122035,成福大藥局,02-27859221,臺北市南港區成福路8號,台北市南港區萬福里11鄰成福路8號,25.045776999999998,121.58587,,台北市,南港區
5901122044,心心藥局,02-27862586,臺北市南港區研究院路2段76號,台北市南港區中研里32鄰研究院路二段76號,25.045516,121.61513300000001,國定假日執行調劑業務,台北市,南港區
5901150011,南風藥局,02-28320375,台北市士林區美崙街19號1樓,台北市士林區福佳里3鄰美崙街19號,25.097156,121.523331,,台北市,士林區
5901150057,菁安藥局,02-28323951,台北市士林區美侖街13號1樓,台北市士林區美崙街13號,25.0971449,121.5234101,,台北市,士林區
5901150128,新興藥局,02-28362643,台北市士林區德行西路117號,台北市士林區蘭興里1鄰德行西路117號,25.103977,121.52062099999999,,台北市,士林區
5901150146,坤成泰藥局,02-28813903,台北市士林區大南路412號,台北市士林區後港里19鄰大南路412號,25.089956,121.516172,,台北市,士林區
5901150235,杏城藥局,02-28725144,台北市士林區天母東路24號,台北市士林區天福里20鄰天母東路24號,25.117637,121.532249,,台北市,士林區
5901150244,佳赫藥局,02-28367202,台北市士林區文昌路44號,台北市士林區福佳里19鄰文昌路44號,25.095622,121.521553,,台北市,士林區
5901150253,文祥藥局,02-28623487,台北市士林區光華路26巷2弄2號,台北市士林區陽明里14鄰光華路26巷2弄2號,25.137491,121.542047,,台北市,士林區
5901150271,建芳藥局,02-28357172,台北市士林區德行東路148號,台北市士林區忠誠里2鄰德行東路148號,25.108038,121.529556,,台北市,士林區
5901150280,慈航藥局,02-28815988,台北市士林區文林路441號,台北市士林區福德里6鄰文林路441號,25.094807,121.524569,,台北市,士林區
5901150342,士林三安藥局,02-28812631,台北市士林區大南路11號,台北市士林區仁勇里6鄰大南路11號,25.088981,121.526009,,台北市,士林區
5901150351,啟宏藥局,02-28825811,台北市士林區大東路90－1號1樓,台北市士林區仁勇里12鄰大東路90之1號,25.091459,121.525628,,台北市,士林區
5901150397,博惠藥局,02-28320379,台北巿士林區華榮街16號,台北市士林區華榮街16號,25.095509600000003,121.5236009,,台北市,士林區
5901150459,有德堂大藥局,02-28318387,台北市士林區中山北路6段227號,台北市士林區蘭興里12鄰中山北路六段227號,25.108884,121.52511499999999,,台北市,士林區
5901150468,太安藥局,02-28111468,台北市士林區延平北路5段157號,台北市士林區富光里3鄰延平北路五段157號,25.082512,121.51013,,台北市,士林區
5901150511,三原藥局,02-28111888,台北市士林區延平北路5段293號,台北市士林區葫蘆里13鄰延平北路五段293號,25.085898999999998,121.50940700000001,,台北市,士林區
5901150548,田倉藥局,02-88662188,台北市士林區士東路124號,台北市士林區三玉里18鄰士東路124號,25.112192999999998,121.53015800000001,,台北市,士林區
5901150575,日康藥局,02-28358558,台北市士林區士東路12號1樓,台北市士林區蘭雅里19鄰士東路12號,25.111678,121.52673700000001,,台北市,士林區
5901150593,安寧藥局,02-28803319,台北市士林區劍潭路91號,台北市士林區百齡里1鄰劍潭路91號,25.082846,121.51990900000001,領藥時間為週一至週五9:00~12:00及16:00~20:00；週六9:00~12:00,台北市,士林區
5901150600,環安藥局,02-28828478,台北市士林區大南路244號1樓,台北市士林區後港里5鄰大南路244號,25.088601,121.520536,,台北市,士林區
5901150682,加赫藥局,02-28336362,台北市士林區文昌路76號,台北市士林區福佳里20鄰文昌路76號,25.096463,121.52121499999998,,台北市,士林區
5901150762,麗森藥局,02-28714152,台北市士林區天母西路51號,台北市士林區天玉里4鄰天母西路51號,25.118543,121.52693500000001,,台北市,士林區
5901150771,天母大和藥師藥局,02-28310142,台北市士林區德行東路189－1號1樓,台北市士林區三玉里13鄰德行東路189之1號,25.108967,121.53166499999999,,台北市,士林區
5901150815,陽明藥局,02-28612863,台北市士林區菁山路10號1樓,台北市士林區陽明里9鄰菁山路10號,25.137985999999998,121.546925,,台北市,士林區
5901151956,康鈺藥局,02-28313915,台北市士林區德行東路133號1樓,台北市士林區三玉里15鄰德行東路133號,25.108088000000002,121.52921,,台北市,士林區
5901152024,今欣藥局,02-28713129,台北市士林區天母西路41巷9號1樓,台北市士林區天玉里4鄰天母西路41巷9號,25.119313000000002,121.527376,周日及國定假日休息,台北市,士林區
5901152051,士新藥局,02-28331332,台北市士林區文昌路62號,台北市士林區福佳里20鄰文昌路62號,25.096049,121.52137900000001,,台北市,士林區
5901152079,資生堂藥局,02-28857588,台北市士林區承德路4段40巷17號1Ｆ,台北市士林區福華里6鄰承德路四段40巷17號,25.081072,121.52202199999999,,台北市,士林區
5901152122,社子全民藥局,02-28127412,台北市士林區延平北路5段120號,台北市士林區福順里12鄰延平北路五段120號,25.081694,121.51056499999999,,台北市,士林區
5901152131,康華藥局,02-28743223,台北市士林區中山北路7段14巷2號2樓,台北市士林區天山里9鄰中山北路七段14巷2號,25.118636,121.53107299999999,,台北市,士林區
5901152186,詠恩藥局,02-28119479,台北市士林區延平北路5段316號1樓,台北市士林區葫東里13鄰延平北路五段316號,25.086192999999998,121.509575,,台北市,士林區
5901152293,安泰藥師藥局,02-28166977,台北市士林區延平北路六段83號（實際使用：1、2樓）,台北市士林區社子里16鄰延平北路六段83號,25.088437,121.50866599999999,每月最後一週週六未執業,台北市,士林區
5901152453,家赫藥局,02-28346453,台北市士林區忠義街80號1樓,台北市士林區聖山里11鄰忠義街80號,25.106141,121.53171699999999,,台北市,士林區
5901152471,得安藥局,02-28836336,台北市士林區文林路140號,台北市士林區仁勇里2鄰文林路140號,25.088776,121.52666,,台北市,士林區
5901152604,達揚藥局,02-88115559,台北市士林區社正路36號1樓,台北市士林區社子里16鄰社正路36號,25.088770999999998,121.509901,,台北市,士林區
5901152640,仁大藥局,02-88113793,台北市士林區社子街13號1樓,台北市士林區社新里3鄰社子街13號,25.08769,121.50833300000001,,台北市,士林區
5901152659,和樹藥局,02-28821188,台北市士林區後港街45巷1號1樓,台北市士林區前港里1鄰後港街45巷1號,25.084438000000002,121.522772,,台北市,士林區
5901152686,三光藥局,02-28123786,台北市士林區延平北路5段320號1樓,台北市士林區葫東里13鄰延平北路五段320號,25.086279,121.50954899999999,,台北市,士林區
5901152720,博信藥局,02-28128295,台北市士林區延平北路6段61號,台北市士林區社新里1鄰延平北路六段61號,25.087878,121.50876399999999,,台北市,士林區
5901152739,芳圓藥局,02-28168666,台北市士林區社子街26－1號,台北市士林區社新里6鄰社子街26之1號,25.087495,121.507966,,台北市,士林區
5901152748,柏雅大藥局,02-88664398,台北市士林區德行西路64號,台北市士林區德行里16鄰德行西路64號,25.105058,121.52268500000001,,台北市,士林區
5901152793,信光藥局,02-28366277,台北市士林區文昌路68號,台北市士林區福佳里20鄰文昌路68號,25.096194,121.521358,,台北市,士林區
5901152837,文昌大藥局,02-28376196,台北市士林區文昌路72號,台北市士林區福佳里20鄰文昌路72號,25.096341,121.52126499999999,,台北市,士林區
5901152873,幸福藥局,02-28346650,台北市士林區德行東路109巷8號,台北市士林區蘭雅里1鄰德行東路109巷8號,25.108121,121.52839399999999,,台北市,士林區
5901152882,天爵藥局,02-28733759,台北市士林區中山北路6段450巷1號,台北市士林區天祿里11鄰中山北路六段450巷1號,25.114247,121.527639,,台北市,士林區
5901152971,石川藥師藥局,02-28385850,台北市士林區忠義街70號,台北市士林區聖山里17鄰忠義街70號,25.105944,121.53142,固定周日公休,台北市,士林區
5901153058,誼安藥局,02-28851899,台北市士林區通河街42號,台北市士林區明勝里6鄰通河街42號,25.080442,121.521469,,台北市,士林區
5901153101,聖賢藥局,02-28833046,台北市士林區士商路58號,台北市士林區後港里2鄰士商路58號,25.090564,121.52003300000001,"周一至周五8:30-22:00, 周六9:00-18:00, 周日休",台北市,士林區
5901153110,美麗田藥局,02-28855990,台北市士林區通河街78號,台北市士林區明勝里7鄰通河街78號,25.080901,121.520436,,台北市,士林區
5901153245,大東健保藥局,02-28834672,臺北市士林區大東路86－4號,台北市士林區仁勇里10鄰大東路86之4號,25.091314,121.525672,,台北市,士林區
5901153263,健揚藥局,02-28163698,台北市士林區延平北路5段251號,台北市士林區葫蘆里8鄰延平北路五段251號,25.084827,121.50968300000001,,台北市,士林區
5901153272,光榮藥局,02-28136060,台北市士林區社中街118號,台北市士林區社子里8鄰社中街118號,25.089901,121.510345,,台北市,士林區
5901153325,天母康甯健保藥局,02-28366631,台北市士林區克強路8號,台北市士林區蘭興里12鄰克強路8號,25.108907000000002,121.52453200000001,,台北市,士林區
5901153405,社正藥局,02-28118704,台北市士林區社正路12號,台北市士林區社子里16鄰社正路12號,25.088538,121.50927800000001,,台北市,士林區
5901153610,家安健保藥局,02-28322182,台北市士林區德行東路109巷119號,台北市士林區蘭雅里10鄰德行東路109巷119號,25.111562,121.528778,,台北市,士林區
5901153656,德行盛康藥局,02-28348756,台北市士林區德行東路206之1號,台北市士林區聖山里4鄰德行東路206之1號,25.108898,121.53198700000002,,台北市,士林區
5901153665,康佑藥局,02-28119981,台北市士林區延平北路5段176號,台北市士林區福順里15鄰延平北路五段176號,25.082995,121.510287,,台北市,士林區
5901153674,愛佳藥局,02-28811199,台北市士林區承德路4段222之1號,台北市士林區前港里3鄰承德路四段222之1號,25.088502,121.521473,,台北市,士林區
5901153683,安奕藥局,02-28133289,台北市士林區葫蘆街30巷12號,台北市士林區富光里11鄰葫蘆街30巷12號,25.080338,121.50993100000001,,台北市,士林區
5901153709,全予藥局,02-28386955,台北市士林區德行東路221號,台北市士林區三玉里7鄰德行東路221號,25.109385,121.53288500000001,,台北市,士林區
5901153727,前港盛康藥局,02-28831079,台北市士林區前港街28號,台北市士林區前港里4鄰前港街28號,25.084599,121.52205,,台北市,士林區
5901153745,藥本家藥局,02-28766682,台北市士林區中山北路7段14巷26號,台北市士林區天山里4鄰中山北路七段14巷26號,25.118845,121.532774,,台北市,士林區
5901153781,文林生活健保藥局,02-28381971,台北市士林區文林路562號（實際使用：1樓）,台北市士林區舊佳里21鄰文林路562號,25.097788,121.523999,,台北市,士林區
5901153790,天母盛康藥局,02-28720208,台北市士林區天母東路8巷84號,台北市士林區天福里8鄰天母東路8巷84號,25.114835,121.530433,,台北市,士林區
5901153807,中山盛康藥局,02-28771887,台北市士林區中山北路7段162號,台北市士林區天山里20鄰中山北路七段162號,25.124164999999998,121.53271000000001,,台北市,士林區
5901153816,士東台安藥局,02-28315667,台北市士林區士東路86之2號（實際使用：1樓）,台北市士林區蘭雅里10鄰士東路86之2號,25.111825,121.528774,,台北市,士林區
5901153825,太和堂中西藥局,02-28814122,台北市士林區大東路74號（實際使用：1樓）,台北市士林區仁勇里9鄰大東路74號,25.090366,121.525679,,台北市,士林區
5901153852,躍獅芝山藥局,02-28365822,台北市士林區福華路154號（實際使用：1樓）,台北市士林區德行里13鄰福華路154號,25.10357,121.52273100000001,,台北市,士林區
5901153861,佩佩藥局,02-28382662,台北市士林區中山北路6段182號,台北市士林區蘭雅里22鄰中山北路六段182號,25.107587,121.525201,,台北市,士林區
5901153870,容育藥局,02-28113680,台北市士林區延平北路6段8號（實際使用：1樓）,台北市士林區社子里13鄰延平北路六段8號,25.087121,121.509271,,台北市,士林區
5901153889,新光維康藥局,02-28801011,台北市士林區基河路250之3號（實際使用：1樓）,台北市士林區福德里20鄰基河路250之3號,25.091874,121.52080600000001,,台北市,士林區
5901160044,石牌藥局,02-28214986,台北市北投區石牌路1段49號,台北市北投區吉慶里13鄰石牌路一段49號,25.113297,121.51058300000001,,台北市,北投區
5901160053,天蓮藥局,02-28211824,台北市北投區石牌路1段166巷115號,台北市北投區榮光里9鄰石牌路一段166巷115號,25.111918,121.515515,,台北市,北投區
5901160062,丸三大藥局,02-28230637,台北市北投區自強街105號,台北市北投區榮光里3鄰自強街105號,25.110859,121.515267,,台北市,北投區
5901160099,進春藥局,02-28216938,台北市北投區明德路151號,台北市北投區裕民里2鄰明德路151號,25.110863000000002,121.52064299999999,,台北市,北投區
5901160142,德昇藥局,02-28217565,台北市北投區裕民二路20號,台北市北投區振華里19鄰裕民二路20號,25.116039,121.516957,,台北市,北投區
5901160197,川秀藥局,02-28270702,台北市北投區石牌路2段99巷9號1樓,台北市北投區永明里4鄰石牌路二段99巷9號,25.117921,121.51663700000002,,台北市,北投區
5901160222,新祥藥局,02-28582551,台北市北投區知行路208號－1,台北市北投區關渡里16鄰知行路208號,25.119352,121.46682,,台北市,北投區
5901160240,福恭藥局,02-28975325,台北市北投區大業路300巷19號,台北市北投區中央里18鄰大業路300巷19號,25.128363,121.498953,,台北市,北投區
5901160259,啟春藥局,02-28918244,台北市北投區崇仁路1段102號1樓,台北市北投區清江里27鄰崇仁路一段102號,25.125299,121.50170200000001,,台北市,北投區
5901160277,建民藥局,02-28912339,台北市北投區光明路161號,台北市北投區長安里11鄰光明路161號,25.135379999999998,121.50267099999999,,台北市,北投區
5901160286,昌源藥局,02-28928695,台北市北投區中央北路4段485號,台北市北投區一德里16鄰中央北路四段485號,25.128426,121.469233,,台北市,北投區
5901160320,益元藥局,02-28912675,台北市北投區光明路106號,台北市北投區中央里4鄰光明路106號,25.133093,121.50131699999999,,台北市,北投區
5901160400,世全藥局,02-28585378,台北市北投區知行路273號,台北市北投區關渡里18鄰知行路273號,25.121342000000002,121.46723300000001,"早0000-0100,午1300-1600,晚1600-2400",台北市,北投區
5901160428,九福藥局,02-28953009,台北市北投區公館路236號,台北市北投區奇岩里16鄰公舘路236號,25.126125,121.508068,,台北市,北投區
5901160517,弘安藥局,02-28206390,台北市北投區懷德街33號1樓,台北市北投區裕民里16鄰懷德街33號,25.112188,121.51933799999999,,台北市,北投區
5901160544,黎明藥局,02-28223795,台北市北投區尊賢街253－1號,台北市北投區立賢里3鄰尊賢街253之1號,25.118173000000002,121.50656299999999,早上930至1230 下午1600至2100,台北市,北投區
5901160562,名山藥局,02-28226101,台北市北投區東陽街475號1樓,台北市北投區振華里21鄰東陽街475號,25.112308,121.51991100000001,,台北市,北投區
5901160704,明華藥局,02-28971056,台北市北投區清江路8號（實際使用：1樓）,台北市北投區清江里4鄰清江路8號,25.131565,121.50146399999998,,台北市,北投區
5901160802,美康藥局,02-28281176,台北市北投區明德路90號1樓,台北市北投區榮華里18鄰明德路90號,25.109399,121.51960700000001,,台北市,北投區
5901161890,良興藥局,02-28933360,台北市北投區中和街286號,台北市北投區開明里8鄰中和街286號,25.140466,121.50039,,台北市,北投區
5901161934,康揚藥局,02-28946520,台北市北投區中和街322號,台北市北投區開明里1鄰中和街322號,25.14108,121.49976299999999,,台北市,北投區
5901161961,聯合藥局,02-28270306,台北市北投區石牌路1段23號,台北市北投區吉慶里6鄰石牌路一段23號,25.11293,121.50991299999998,,台北市,北投區
5901161998,玉山藥局,02-28956236,台北市北投區光明路145號,台北市北投區長安里15鄰光明路146之2號,25.134535999999997,121.5025,,台北市,北投區
5901162002,實踐藥局,02-28276616,台北市北投區實踐街13號,台北市北投區立賢里14鄰實踐街13號,25.114873,121.50772099999999,執業時段請電洽藥局,台北市,北投區
5901162066,嘉禾大藥局,02-28984758,台北市北投區中和街264號,台北市北投區開明里7鄰中和街264號,25.14014,121.500717,,台北市,北投區
5901162119,祐鄰藥局,02-28281232,台北市北投區尊賢街250號,台北市北投區尊賢里3鄰尊賢街250號,25.117070000000002,121.50728600000001,,台北市,北投區
5901162173,小明藥局,02-28928950,台北市北投區中央南路1段69號2樓,台北市北投區清江里4鄰中央南路一段69號,25.131447,121.501368,執業時段請電洽藥局,台北市,北投區
5901162182,祐民藥局,02-28975339,台北市北投區中央南路1段209號1樓,台北市北投區中央里19鄰中央南路一段208號,25.12837,121.501071,,台北市,北投區
5901162306,上頤藥局,02-28981230,台北市北投區中和街327號1樓,台北市北投區中庸里3鄰中和街327號,25.140970000000003,121.49967099999999,,台北市,北投區
5901162459,國泰藥師藥局,02-28223995,台北市北投區自強街139－1號,台北市北投區榮光里1鄰自強街139之1號,25.111204999999998,121.51606399999999,,台北市,北投區
5901162477,長宜藥局,02-28216605,台北市北投區自強街112號,台北市北投區石牌里8鄰自強街112號,25.110746,121.515459,,台北市,北投區
5901162520,妮妮藥局,02-28948067,台北市北投區中央南路1段187號,台北市北投區清江里14鄰中央南路一段187號,25.128842000000002,121.50137099999999,,台北市,北投區
5901162780,康賢藥局,02-28219295,台北市北投區西安街1段359號,台北市北投區榮光里21鄰西安街一段359號,25.114229,121.515354,,台北市,北投區
5901162806,大家藥局,02-28959000,台北市北投區光明路182號,台北市北投區長安里15鄰光明路182號,25.135663,121.503295,,台北市,北投區
5901162815,天康大藥局,02-28930168,台北市北投區中央南路1段57號,台北市北投區中央里3鄰中央南路一段57號,25.13192,121.501427,,台北市,北投區
5901162833,維康藥局,02-28206343,台北市北投區石牌路2段191．193號,台北市北投區永欣里12鄰石牌路二段368號,25.123592000000002,121.525833,,台北市,北投區
5901162879,杏嘉藥局,02-28982340,台北市北投區清江路68號,台北市北投區清江里9鄰清江路68號,25.130443,121.501704,"早0900-1200,午1200-1700,晚1700-2200",台北市,北投區
5901163027,躍獅光明藥局,02-28915993,台北市北投區光明路51、53號,台北市北投區林泉里12鄰光明路283號,25.136951999999997,121.51104199999999,,台北市,北投區
5901163107,小豬藥局,02-28217099,台北市北投區石牌路1段166巷83號,台北市北投區榮光里14鄰石牌路一段166巷83號,25.112622,121.514979,,台北市,北投區
5901163152,石牌健康人生藥局,02-28225169,台北市北投區石牌路2段187號,台北市北投區永明里4鄰石牌路二段187號,25.118676,121.518327,除夕下午3點休息至初三10點,台北市,北投區
5901163214,鴻恩藥局,02-28926410,台北市北投區中央南路1段129號,台北市北投區清江里10鄰中央南路一段129號,25.130151,121.501195,,台北市,北投區
5901163241,昱仁藥局,02-28979050,台北市北投區光明路102號2樓,台北市北投區中央里4鄰光明路102號,25.133095,121.501218,,台北市,北投區
5901163250,關渡松藥局,02-28584824,台北市北投區知行路247號,台北市北投區關渡里19鄰知行路247號,25.120735999999997,121.467068,,台北市,北投區
5901163269,佳祈健保藥局,02-28232535,台北市北投區明德路144號,台北市北投區榮華里15鄰明德路144號,25.110468,121.520766,,台北市,北投區
5901163296,天禧大藥局,02-28213558,台北市北投區實踐街35號,台北市北投區尊賢里10鄰實踐街35號,25.115209,121.508706,,台北市,北投區
5901163312,秝安藥局,02-28215399,台北市北投區石牌路1段69號（實際使用：1樓）,台北市北投區吉慶里13鄰石牌路一段69號,25.113566,121.51108,,台北市,北投區
5901163330,萬信藥局,02-28583083,台北市北投區知行路305號（實際使用1樓）,台北市北投區關渡里2鄰知行路305號,25.122144,121.467192,,台北市,北投區
5901163376,北投春天藥局,02-28916668,台北市北投區中央南路1段76號,台北市北投區中央里9鄰中央南路一段76號,25.131345,121.501126,,台北市,北投區
5901163394,致遠春天藥局,02-28253258,臺北市北投區致遠一路1段132號1、2樓,台北市北投區石牌里8鄰致遠一路一段132號,25.110508,121.514881,,台北市,北投區
5901170040,惠群藥局,02-27679234,台北市信義區忠孝東路4段559巷38號,台北市信義區新仁里12鄰忠孝東路四段559巷38號,25.043086,121.56376599999999,,台北市,信義區
5901170059,必欣藥局,02-27225060,台北市信義區松仁路264號,台北市信義區六合里3鄰松仁路264號,25.024253,121.569584,,台北市,信義區
5901170139,福華藥局,02-27208527,台北市信義區吳興街281巷3號1樓,台北市信義區三張里19鄰吳興街281巷3號,25.026559,121.56434899999999,,台北市,信義區
5901170184,臺陽藥局,02-27283403,台北市信義區大道路61號,台北市信義區大道里14鄰大道路61號,25.041359,121.58233600000001,,台北市,信義區
5901170255,松隆藥局,02-27684033,台北市信義區虎林街65號,台北市信義區四育里6鄰虎林街65號,25.046042,121.577073,,台北市,信義區
5901170264,杏康藥局,02-23457422,台北市信義區忠孝東路5段372巷27弄68－2號1Ｆ,台北市信義區廣居里20鄰忠孝東路五段372巷27弄68之2號,25.039756,121.575298,,台北市,信義區
5901170282,光成藥局,02-27587069,台北市信義區光復南路457號－3,台北市信義區西村里24鄰光復南路457號,25.034485,121.55774,,台北市,信義區
5901170335,慧生藥局,02-27647138,台北市信義區松山路310號,台北市信義區長春里1鄰松山路310號,25.042561,121.577657,,台北市,信義區
5901170399,文豐藥局,02-27272709,台北市信義區松山路543號－1,台北市信義區松光里20鄰松山路543號,25.03765,121.578271,,台北市,信義區
5901170406,鼎泰藥局,02-27620617,台北市信義區基隆路1段155號1樓,台北市信義區興雅里6鄰基隆路一段155號,25.042216,121.56533600000002,周一至周五 9：30-21：30,台北市,信義區
5901170433,松山大藥局,02-27620624,台北市信義區永吉路436號,台北市信義區永春里21鄰永吉路436號,25.045264000000003,121.57813200000001,,台北市,信義區
5901170442,大順安藥局,02-27360639,台北市信義區吳興街84號,台北市信義區景聯里21鄰吳興街84號,25.030562,121.560631,,台北市,信義區
5901170648,立信藥局,02-27687754,台北市信義區松山路403號,台北市信義區永春里13鄰松山路403號,25.041443,121.577991,,台北市,信義區
5901170906,吳興藥局,02-27208328,台北市信義區吳興街279號1樓,台北市信義區三張里19鄰吳興街279號,25.026581,121.56419299999999,,台北市,信義區
5901170915,杏仁藥局,02-27262541,台北市信義區大道路135號,台北市信義區中坡里11鄰大道路135號,25.039009,121.583446,,台北市,信義區
5901172071,百康藥局,02-27364377,台北市信義區基隆路2段131之20號,台北市信義區嘉興里4鄰基隆路二段131之20號,25.02751,121.556349,,台北市,信義區
5901172160,佑華藥局,02-27595719,台北市信義區忠孝東路5段508－4號1樓,台北市信義區松光里1鄰忠孝東路五段508之4號,25.040754999999997,121.578718,,台北市,信義區
5901172179,新和平藥局,02-23460951,台北市信義區虎林街198號1樓,台北市信義區國業里3鄰虎林街198號,25.038441,121.57688300000001,108年2月28日周四3月1日3月2日.有上班.,台北市,信義區
5901172197,得揚藥局,02-87884667,台北市信義區忠孝東路5段452號1樓,台北市信義區廣居里7鄰忠孝東路五段452號,25.040689999999998,121.57632199999999,,台北市,信義區
5901172213,華泰藥局,02-27601992,台北市信義區虎林街82巷5號,台北市信義區四維里9鄰虎林街82巷5號,25.043348,121.57690500000001,,台北市,信義區
5901172240,德康大藥局,02-27272502,台北市信義區松山路541巷21號,台北市信義區松光里22鄰松山路541巷21號,25.037942,121.578984,,台北市,信義區
5901172268,皇佳大藥局,02-27269868,台北市信義區松山路541巷19號,台北市信義區松光里22鄰松山路541巷19號,25.037927,121.57888899999999,,台北市,信義區
5901172508,好康藥局,02-27232979,台北市信義區莊敬路414號,台北市信義區三張里20鄰莊敬路414號,25.027157,121.566199,,台北市,信義區
5901172544,麗中藥局,02-27594416,台北市信義區福德街217號,台北市信義區中坡里10鄰福德街217號,25.038408999999998,121.58474,,台北市,信義區
5901172580,文興藥局,02-27590989,台北市信義區福德街245號,台北市信義區中行里12鄰福德街245號,25.038739,121.585857,,台北市,信義區
5901172651,康杏藥局,02-27591510,台北市信義區福德街306號1樓,台北市信義區中行里32鄰福德街306號,25.039306,121.58736,,台北市,信義區
5901172688,昆陽藥局,02-27274814,台北市信義區林口街230號,台北市信義區大道里1鄰林口街230號,25.042479999999998,121.581313,,台北市,信義區
5901172697,綠杏大藥局,02-27582378,台北市信義區吳興街241號,台北市信義區三張里25鄰吳興街241號,25.02745,121.563493,,台北市,信義區
5901172704,鴻濟藥局,02-27645331,台北市信義區永吉路326巷2號1樓,台北市信義區五全里8鄰永吉路326巷2號,25.045069,121.575391,,台北市,信義區
5901172740,信桉藥局,02-87860005,台北市信義區莊敬路236號,台北市信義區景新里3鄰莊敬路236號,25.029598,121.56208799999999,,台北市,信義區
5901172786,安佑藥局,02-27222236,台北市信義區吳興街247號1樓,台北市信義區三張里25鄰吳興街247號,25.027331,121.56358999999999,,台北市,信義區
5901172820,安心藥局,02-27474992,台北市信義區永吉路30巷148弄4之1號,台北市信義區興雅里14鄰永吉路30巷148弄4之1號,25.042658,121.56854399999999,,台北市,信義區
5901172839,九州藥局,02-87323331,台北市信義區和平東路3段239號,台北市信義區黎平里5鄰和平東路三段239號,25.022935999999998,121.55431499999999,,台北市,信義區
5901172857,永吉藥局,02-87874043,台北市信義區永吉路213號,台北市信義區五常里4鄰永吉路213號,25.045714999999998,121.573872,,台北市,信義區
5901172924,松仁藥局,02-27238626,台北市信義區松仁路233號,台北市信義區三犁里1鄰松仁路233號,25.026173999999997,121.56876899999999,9月24日早晚診,台北市,信義區
5901172933,喜樂藥局,02-27275797,台北市信義區松德路125號,台北市信義區國業里2鄰松德路125號,25.037516,121.57528700000002,,台北市,信義區
5901172964,榮泰藥局,02-77296777,台北市信義區光復南路419巷19號,台北市信義區正和里14鄰光復南路419巷19號,25.036586,121.558151,,台北市,信義區
5901173041,皇昇大藥局,02-27663488,台北市信義區松山路210號1樓,台北市信義區四維里8鄰松山路210號,25.045088,121.577633,,台北市,信義區
5901173050,貴臨藥局,02-27493768,台北市信義區永吉路326巷19號,台北市信義區四維里11鄰永吉路326巷19號,25.044574,121.575546,,台北市,信義區
5901173176,三立藥局,02-27271401,台北市信義區忠孝東路5段492巷34號,台北市信義區松光里2鄰忠孝東路五段492巷34號,25.03965,121.578304,,台北市,信義區
5901173201,大鳥藥局,02-23455025,台北市信義區莊敬路354號,台北市信義區三張里27鄰莊敬路354號,25.027717000000003,121.564342,,台北市,信義區
5901173210,濟生中西藥局,02-27358452,台北市信義區崇德街41號,台北市信義區黎順里16鄰崇德街41號,25.024363,121.554199,,台北市,信義區
5901173238,正和藥局,02-23455186,台北市信義區吳興街225巷6號,台北市信義區三張里25鄰吳興街225巷6號,25.027818,121.563422,,台北市,信義區
5901173283,上禾藥師藥局,02-27592686,台北市信義區林口街27號,台北市信義區松光里9鄰林口街27號,25.037414000000002,121.57916399999999,,台北市,信義區
5901173292,荐荃藥師藥局,02-27492866,台北市信義區虎林街68之3號,台北市信義區四維里10鄰虎林街68之3號,25.044479,121.57703500000001,,台北市,信義區
5901173372,新永春藥局,02-27667385,台北市信義區忠孝東路5段423巷1號,台北市信義區富台里13鄰忠孝東路五段423巷1號,25.041263,121.57526399999999,,台北市,信義區
5901173390,馨馨藥局,02-27491208,台北市信義區虎林街82巷19號,台北市信義區四維里16鄰虎林街82巷19號,25.043364,121.57637700000001,,台北市,信義區
5901173407,康怡健保藥局,02-27206193,台北市信義區吳興街467巷2弄12號,台北市信義區惠安里19鄰吳興街467巷2弄12號,25.023808,121.569529,,台北市,信義區
5901173498,御安藥局,02-27323997,台北市信義區和平東路3段359號,台北市信義區黎忠里4鄰和平東路三段359號,25.020377,121.55703700000001,,台北市,信義區
5901173587,新興健保藥局,02-27494892,台北市信義區永吉路30巷113號,台北市信義區敦厚里19鄰永吉路30巷113號,25.043242000000003,121.568867,,台北市,信義區
5901173603,松德盛康藥局,02-87891622,台北市信義區松德路40號,台北市信義區安康里4鄰松德路40號,25.038957999999997,121.57668999999999,,台北市,信義區
5901173658,杏一永春藥局,02-27495938,台北市信義區松山路292巷17號,台北市信義區四維里9鄰松山路292巷17號,25.043337,121.577271,,台北市,信義區
5901173676,杏一光復藥局,02-87804626,台北市信義區光復南路449之1號,台北市信義區西村里26鄰光復南路449之1號,25.034881,121.557794,,台北市,信義區
5901173685,富熙仁康藥局,02-27587608,台北市信義區松仁路260號,台北市信義區六合里3鄰松仁路260號,25.024319000000002,121.56954499999999,,台北市,信義區
5901173694,洪暘藥局,02-27337099,台北市信義區富陽街86號,台北市信義區黎平里13鄰富陽街86號,25.021274,121.55643,,台北市,信義區
5901173701,壹間藥師藥局,02-27672833,台北市信義區虎林街120巷148號,台北市信義區長春里18鄰虎林街120巷148號,25.042133,121.57415400000001,,台北市,信義區
5901173710,專品光復藥局,02-27586682,台北市信義區光復南路467之1號,台北市信義區中興里14鄰光復南路467之1號,25.033838,121.55767,,台北市,信義區
5901173729,康健信安藥局,02-87324166,台北市信義區信安街151號,台北市信義區黎平里10鄰信安街151號,25.022893,121.55540900000001,,台北市,信義區
5901173738,尚頤中西藥局,02-27253818,台北市信義區虎林街145號,台北市信義區廣居里27鄰虎林街145號,25.039594,121.57672099999999,,台北市,信義區
5901173747,躍獅興雅藥局,02-87808429,台北市信義區松德路128號,台北市信義區安康里7鄰松德路128號,25.037341,121.574482,,台北市,信義區
5901173756,信義盛康藥局,02-23460521,台北市信義區永吉路286號,台北市信義區五全里6鄰永吉路286號,25.045378,121.574421,國定假日仍執行調劑業務,台北市,信義區
5901173765,上好藥師藥局,02-27677088,台北市信義區永吉路30巷101弄48號,台北市信義區敦厚里18鄰永吉路30巷101弄48號,25.043430999999998,121.570103,,台北市,信義區
5901173774,立赫北醫藥局,02-27320100,台北市信義區吳興街118巷26弄17號,台北市信義區景聯里9鄰吳興街118巷26弄17號,25.030065,121.559898,,台北市,信義區
5901173783,北一健康人生藥局,02-27583945,台北市信義區吳興街255號,台北市信義區三張里25鄰吳興街255號,25.027153,121.56373400000001,,台北市,信義區
5901173792,柏愛藥局,02-27325472,台北市信義區基隆路2段131之9號,台北市信義區嘉興里4鄰基隆路二段131之9號,25.027881,121.55673600000001,,台北市,信義區
5901173809,愛維喜藥局,02-27586989,台北市信義區莊敬路278號,台北市信義區景新里4鄰莊敬路278號,25.028823000000003,121.562707,,台北市,信義區
5901173818,博亞藥局,02-27580506,台北市信義區莊敬路462號,台北市信義區三張里7鄰莊敬路462號,25.026719,121.567728,,台北市,信義區
5901173827,松美藥局,02-27651099,台北市信義區市民大道6段320號（實際營業地址：1樓）,台北市信義區永吉里1鄰市民大道六段320號,25.048771,121.579748,,台北市,信義區
5901180037,崇信藥局,02-23417557,台北市中正區齊東街88號,台北市中正區幸福里9鄰齊東街88號,25.041624,121.527151,,台北市,中正區
5901180055,日生大藥局,02-23031393,台北市中正區汀州路1段53號1樓,台北市中正區龍興里17鄰汀州路一段53號,25.030257000000002,121.507648,,台北市,中正區
5901180108,三元藥局,02-23052839,台北市中正區三元街158號,台北市中正區龍興里7鄰三元街158號,25.028001,121.51087199999999,,台北市,中正區
5901180126,民生藥局,02-23416470,台北市中正區濟南路2段45－1號1樓,台北市中正區幸市里6鄰濟南路二段45之1號,25.040599,121.53053999999999,,台北市,中正區
5901193025,華達藥局,02-23082785,台北市萬華區環河南路2段171號,台北市萬華區綠堤里7鄰環河南路二段171號,25.032954999999998,121.49236200000001,,台北市,萬華區
5901193070,榮勝藥局,02-23331121,台北市萬華區萬大路233號,台北市萬華區新安里18鄰萬大路233號,25.026491,121.50059499999999,,台北市,萬華區
5901193105,安誠貴陽藥局,02-23812190,台北市萬華區貴陽街2段148號,台北市萬華區富民里4鄰貴陽街二段148號,25.040171,121.501571,,台北市,萬華區
5901193123,千誠北護藥局,02-23123530,台北市萬華區內江街114號,台北市萬華區新起里4鄰內江街114號,25.041525,121.50340700000001,,台北市,萬華區
5901193132,松本藥局,02-23029559,台北市萬華區西昌街233號,台北市萬華區富民里17鄰西昌街233號,25.037226999999998,121.500654,1/24-1/27 春節休假,台北市,萬華區
5901193150,日森人文藥局,02-23082100,台北市萬華區和平西路3段149號,台北市萬華區青山里21鄰和平西路三段149號,25.035427,121.49877,,台北市,萬華區
5901193169,柏祥藥局,02-23018272,台北市萬華區西藏路141號,台北市萬華區新安里1鄰西藏路141號,25.029443,121.501673,1/24-1/29 春節休假,台北市,萬華區
5901193178,展源健康藥局,02-23035179,台北市萬華區國興路104號,台北市萬華區新和里29鄰國興路104號,25.027434,121.50540500000001,,台北市,萬華區
5901193187,富安藥局,02-23377878,台北市萬華區萬大路426號,台北市萬華區華中里3鄰萬大路426號,25.020960000000002,121.49811399999999,,台北市,萬華區
5901193196,青年宏越藥局,02-23011037,台北市萬華區青年路44號,台北市萬華區新和里6鄰青年路44號,25.025504,121.50416399999999,,台北市,萬華區
5901193221,正盛藥局,02-23050386,台北市萬華區中華路2段434－1號,台北市萬華區新和里25鄰中華路二段434之1號,25.027077,121.5064,,台北市,萬華區
5901193230,啟仁藥局,02-23362771,台北市萬華區環河南路2段177號,台北市萬華區綠堤里5鄰環河南路二段177號,25.032593,121.49203899999999,,台北市,萬華區
5901193249,光華藥局,02-23613609,台北市萬華區華西街19－5號,台北市萬華區青山里5鄰華西街19之5號,25.038917,121.498545,,台北市,萬華區
5901200070,裕康藥局,02-22367756,台北市文山區木柵路1段12號,台北市文山區試院里29鄰木柵路一段12號,24.986678,121.54620600000001,,台北市,文山區
5901200105,建興藥局,02-29399993,台北市文山區木柵路2段81號1樓,台北市文山區明興里11鄰木柵路二段81號,24.988889,121.56097,,台北市,文山區
5901200114,健群藥局,02-29328898,台北市文山區景興路41號,台北市文山區興福里2鄰景興路41號,24.997172,121.54483799999998,,台北市,文山區
5901200123,瑞安藥局,02-29312888,台北市文山區溪口街69－1號1樓,台北市文山區景慶里20鄰溪口街69之1號,24.99512,121.539341,,台北市,文山區
5901200141,景美藥局,02-29335741,台北市文山區景文街125號,台北市文山區景行里9鄰景文街125號,24.990331,121.541192,,台北市,文山區
5901200187,全銨藥局,02-29370689,台北市文山區木新路3段349號1樓,台北市文山區樟新里10鄰木新路三段349號,24.980345,121.555821,,台北市,文山區
5901200490,永明大藥局,02-29314428,台北市文山區興隆路1段297號1樓,台北市文山區興豐里6鄰興隆路一段297號,24.998749,121.544901,,台北市,文山區
5901200534,日信專業藥局,02-86618322,台北市文山區木柵路2段139號1樓,台北市文山區明興里13鄰木柵路二段139號,24.989060000000002,121.562527,,台北市,文山區
5901201540,逸仙藥師藥局,02-29312597,台北市文山區興隆路2段218－1號1樓,台北市文山區興業里3鄰興隆路二段218之1號,25.001482,121.552442,9:00-10:00,台北市,文山區
5901201568,康宜庭生活藥局,02-29385363,台北市文山區興隆路4段64號,台北市文山區樟林里22鄰興隆路四段64號,24.985142,121.561325,,台北市,文山區
5901201675,博揚藥局,02-89321707,台北市文山區景興路181號,台北市文山區景東里3鄰景興路181號,24.992801999999998,121.54442399999999,,台北市,文山區
5901201728,東京晟藥局,02-29356354,台北市文山區辛亥路4段97號,台北市文山區興昌里7鄰辛亥路四段97號,25.006838000000002,121.558702,,台北市,文山區
5901201746,仙瑩藥局,02-89321817,台北市文山區景華街166號,台北市文山區興安里21鄰景華街166號,24.996933,121.54787900000001,,台北市,文山區
5901201755,銘依藥局,02-29308538,台北市文山區興隆路2段301巷4－1號,台北市文山區興泰里4鄰興隆路二段301巷4之1號,25.001661,121.55343,一至五下午時段係4點開始執業,台北市,文山區
5901201826,舒博威藥局,02-29306805,台北市文山區興隆路2段95巷3號,台北市文山區興豐里16鄰興隆路二段95巷3號,24.999517,121.547004,,台北市,文山區
5901201835,巧康藥局,02-29372061,台北市文山區木新路3段262、264號,台北市文山區樟新里16鄰木新路三段417號,24.97989,121.55418600000002,,台北市,文山區
5901201871,佳醫景美藥局,02-86636659,台北市文山區羅斯福路6段290號,台北市文山區景美里10鄰羅斯福路六段290號,24.991001,121.53984399999999,,台北市,文山區
5901201951,慶豐好藥局,02-29384775,台北市文山區興隆路4段135號1樓,台北市文山區忠順里2鄰興隆路四段135號,24.985356,121.56156499999999,1/24 - 1/31 春節休假,台北市,文山區
5901202047,華君藥局,02-29319510,台北市文山區興隆路2段60號,台北市文山區興安里1鄰興隆路二段60號,24.999554,121.54776299999999,,台北市,文山區
5901202154,安誠藥局,02-29308542,台北市文山區景華街124－1號,台北市文山區景東里16鄰景華街124之1號,24.995611,121.546825,,台北市,文山區
5901202216,皇興藥師藥局,02-29365553,台北市文山區木柵路2段121號,台北市文山區明興里13鄰木柵路二段121號,24.989007,121.562067,,台北市,文山區
5901202396,宇康藥局,02-29307066,台北市文山區羅斯福路5段218巷7號,台北市文山區萬隆里7鄰羅斯福路五段218巷7號,25.002028,121.538294,,台北市,文山區
5901202583,康宜庭景文藥局,02-29302801,台北市文山區景文街97號,台北市文山區景行里9鄰景文街97號,24.99093,121.54134599999999,營業時間8:30-22:00,台北市,文山區
5901202592,人人健保藥局,02-86610761,台北市文山區保儀路39號,台北市文山區木新里3鄰保儀路39號,24.987858,121.568694,,台北市,文山區
5901202627,杏隆藥局,02-29313151,台北市文山區羅斯福路5段261號,台北市文山區萬祥里4鄰羅斯福路五段261號,25.001151,121.539505,,台北市,文山區
5901202645,永源大藥局,02-22396166,台北市文山區興隆路3段302號,台北市文山區興得里26鄰興隆路三段302號,24.993123999999998,121.558797,,台北市,文山區
5901202654,康宜庭萬隆藥局,02-29348662,台北市文山區羅斯福路5段202號,台北市文山區萬年里17鄰羅斯福路五段202號,25.003221,121.538448,,台北市,文山區
5901202672,美迦藥局,02-29362815,台北市文山區保儀路23號,台北市文山區木新里3鄰保儀路23號,24.988147,121.56871100000001,,台北市,文山區
5901202681,振大藥局,02-29393385,台北市文山區永安街22巷16號,台北市文山區木新里12鄰永安街22巷16號,24.986829,121.56966899999999,,台北市,文山區
5901202752,躍獅奕新藥局,02-22340378,台北市文山區木新路2段275號,台北市文山區樟腳里6鄰木新路二段275號,24.98292,121.56601699999999,,台北市,文山區
5901202789,宜康藥局,02-86619862,台北市文山區保儀路7號,台北市文山區木新里1鄰保儀路7號,24.988719,121.56863999999999,,台北市,文山區
5901202841,欣安景美藥局,02-29316008,台北市文山區景文街77號,台北市文山區景行里9鄰景文街77號,24.991259,121.54142900000001,,台北市,文山區
5901202850,北一藥師藥局,02-22348686,台北市文山區木新路3段47號,台北市文山區樟腳里2鄰木新路三段47號,24.98236,121.56416399999999,9：00~22：00,台北市,文山區
5901202949,萬隆大藥局,02-29334580,台北市文山區羅斯福路5段218巷15號,台北市文山區萬隆里4鄰羅斯福路五段218巷15號,25.002027,121.53795900000001,9：00~23：00,台北市,文山區
5901202958,杏一萬安藥局,02-22302126,台北市文山區萬安街15號,台北市文山區萬芳里9鄰萬安街15號,25.00139,121.57064,,台北市,文山區
5901202976,健康家藥局,02-29330858,台北市文山區興隆路2段133號,台北市文山區興邦里1鄰興隆路二段133號,25.000113,121.548056,9：00~22：00,台北市,文山區
5901202994,躍獅永健藥局,02-77285780,台北市文山區木柵路1段177號,台北市文山區華興里11鄰木柵路一段177號,24.987767,121.550992,,台北市,文山區
5901203026,健康人生藥局,02-29347813,台北市文山區興隆路3段106號,台北市文山區興得里12鄰興隆路三段106號,24.999321,121.55726100000001,營業時間:0900-2230,台北市,文山區
5901203044,木新健康人生藥局,02-86611465,台北市文山區木新路3段203號,台北市文山區樟腳里16鄰木新路三段203號,24.981397,121.55983400000001,9：30~22：00,台北市,文山區
5901203062,大樹文山藥局,02-29342226,台北市文山區興隆路3段13號（1、2、3樓）,台北市文山區興光里4鄰興隆路三段13號,25.000878,121.554979,,台北市,文山區
5901203071,景華盛康藥局,02-29310188,台北市文山區景華街69號,台北市文山區興福里4鄰景華街69號,24.995243,121.545041,2/15~2/18 農曆春節 門市休假,台北市,文山區
5901203080,杏一木柵藥局,02-29371839,台北市文山區木柵路3段98號,台北市文山區木柵里29鄰木柵路三段98號,24.988605,121.567356,,台北市,文山區
5901203106,光明大藥局,02-29390275,台北市文山區忠順街1段66號,台北市文山區樟樹里7鄰忠順街一段66號,24.984258999999998,121.560676,,台北市,文山區
5901203124,福興藥局,02-89313868,台北市文山區福興路56號,台北市文山區興旺里1鄰福興路56號,25.003451000000002,121.55045600000001,,台北市,文山區
5901203160,路加健康藥局,02-29302336,台北市文山區興隆路2段220巷39號,台北市文山區興業里8鄰興隆路二段220巷39號,25.000216,121.55218,,台北市,文山區
5901203179,健安藥局,02-29323757,台北市文山區景興路165號,台北市文山區景東里3鄰景興路165號,24.993464000000003,121.54466299999999,,台北市,文山區
5901203188,逸全生活藥局,02-29326185,台北市文山區羅斯福路5段222號,台北市文山區萬隆里7鄰羅斯福路五段222號,25.001973,121.538756,,台北市,文山區
5901203204,躍獅新芳藥局,02-29308172,台北市文山區興隆路3段90號,台北市文山區興得里12鄰興隆路三段90號,24.999579999999998,121.556874,,台北市,文山區
5901203213,綠杏萬芳藥局,02-29349516,台北市文山區興隆路3段111號,台北市文山區興光里7鄰興隆路三段111號,25.000306,121.55833,每週日公休,台北市,文山區
5901203222,躍獅景新藥局,02-29356221,台北市文山區羅斯福路6段30號,台北市文山區萬隆里15鄰羅斯福路六段30號,24.999784,121.539645,,台北市,文山區
5901203240,大愛幸福藥局,02-29379977,台北市文山區木新路2段221號,台北市文山區樟腳里1鄰木新路二段221號,24.983442999999998,121.567524,,台北市,文山區
5901203259,杏一萬芳藥局,02-82301606,台北市文山區興隆路3段118號、118號2樓,台北市文山區興得里19鄰興隆路三段118號,24.999093,121.557589,,台北市,文山區
5901203268,躍獅木柵藥局,02-86617752,台北市文山區指南路1段28號,台北市文山區木新里10鄰指南路一段28號,24.987560000000002,121.56948899999999,,台北市,文山區
5902011326,和生藥局,07-5315739,高雄市鹽埕區建國四路178－2號,高雄市鹽埕區中山里12鄰建國四路178之2號,22.627843,120.28171100000002,,高雄市,鹽埕區
5902011335,利百加藥局,07-5511098,高雄市鹽埕區大公路96號,高雄市鹽埕區中山里7鄰大公路96號,22.627872,120.282559,,高雄市,鹽埕區
5902020012,永松藥局,07-5810657,高雄市鼓山區鼓山三路130－15號,高雄市鼓山區民族里11鄰鼓山三路130之15號,22.664536,120.280173,服務時間9:00-22:00,高雄市,鼓山區
5902021153,世和藥局,07-5522566,高雄市鼓山區華豐里華夏路195號,高雄市鼓山區華豐里6鄰華夏路195號,22.669356,120.295891,,高雄市,鼓山區
5902021233,崧柏藥局,07-5542027,高雄市鼓山區華榮路543號,高雄市鼓山區華豐里20鄰華榮路543號,22.669689,120.293653,,高雄市,鼓山區
5902021242,快安藥局,07-5514090,高雄市鼓山區濱海一路32號,高雄市鼓山區麗興里13鄰濱海一路32號,22.620041,120.272245,,高雄市,鼓山區
5902021331,文山藥局,07-5315681,高雄市鼓山區鼓山二路166之8之9號,高雄市鼓山區寶樹里13鄰鼓山二路166號之2,22.636999,120.28097,,高雄市,鼓山區
5902021377,藍玉藥局,07-5837528,高雄市鼓山區鼓峰里九如四路2002號,高雄市鼓山區鼓峰里3鄰九如四路2002號,22.667741,120.28608,,高雄市,鼓山區
5902022650,恆生藥局,07-5616156,高雄市鼓山區臨海二路13號,高雄市鼓山區麗興里6鄰臨海二路13號,22.621458999999998,120.274349,,高雄市,鼓山區
5902022669,惠民藥局,07-5833228,高雄市鼓山區九如四路1426號,高雄市鼓山區光榮里17鄰九如四路1426號,22.658698,120.27931299999999,,高雄市,鼓山區
5902022687,元氣藥局,07-5555995,高雄市鼓山區南屏路533號,高雄市鼓山區明誠里48鄰南屏路533號,22.664282,120.30031100000001,,高雄市,鼓山區
5902022721,永瑞藥局,07-5521376,高雄市鼓山區華榮路298號2樓,高雄市鼓山區華豐里32鄰華榮路298號,22.666279,120.29701599999999,中秋節晚上6點休息,高雄市,鼓山區
5902022749,安康藥局,07-5536828,高雄市鼓山區裕誠路1155號,高雄市鼓山區明誠里36鄰裕誠路1155號,22.665668,120.29726799999999,,高雄市,鼓山區
5902022794,定國藥局,07-5815858,高雄市鼓山區九如四路1135號,高雄市鼓山區建國里1鄰九如四路1135號,22.659357,120.279091,領藥時間為AM9:00-PM21:00,高雄市,鼓山區
5902022801,裕康中西大藥局,07-5555352,高雄市鼓山區裕誠路1519號,高雄市鼓山區明誠里31鄰裕誠路1519號,22.664792000000002,120.29511699999999,AM9:00-12:00   PM6:00-9:00,高雄市,鼓山區
5902022829,弘興藥局,07-5612677,高雄市鼓山區鼓山三路48－11號,高雄市鼓山區忠正里7鄰鼓山三路48之11號,22.654681,120.27570800000001,,高雄市,鼓山區
5902022874,康爾喜藥局,07-5222650,高雄市鼓山區慶豐街50號,高雄市鼓山區裕豐里7鄰慶豐街50號,22.666473,120.293466,營業時間為早上9:10至晚間10:00,高雄市,鼓山區
5902022883,高美館藥局,07-5554899,高雄市鼓山區中華一路968號,高雄市鼓山區龍水里7鄰中華一路968號,22.655204,120.29186899999999,,高雄市,鼓山區
5902022892,大有藥局,07-5529402,高雄市鼓山區文信路236號,高雄市鼓山區明誠里50鄰文信路236號,22.664706,120.30043799999999,,高雄市,鼓山區
5902022972,高雄藥局,07-5610031,高雄市鼓山區九如四路924號,高雄市鼓山區民強里26鄰九如四路924號,22.654660999999997,120.27928999999999,領藥時間AM9:00-PM22:00,高雄市,鼓山區
5902030063,紅心藥局,07-3416697,高雄市左營區崇德路255號,高雄市左營區新光里14鄰崇德路255號,22.675352,120.30412,晚上10:30後與星期日未營業,高雄市,左營區
5902030090,宏仁藥局,07-5817895,高雄市左營區左營大路390號,高雄市左營區中北里3鄰左營大路390號,22.687017,120.29320700000001,9:00-22:00,高雄市,左營區
5902030125,元美藥局,07-5821226,高雄市左營區路東里部後街26號,高雄市左營區路東里10鄰廍後街26號,22.684321,120.288026,,高雄市,左營區
5902030205,果貿藥局,07-5852825,高雄市左營區果峰街22號,高雄市左營區果惠里15鄰果峰街22號,22.670632,120.288358,,高雄市,左營區
5902030269,立文藥局,07-5572899,高雄市左營區立文路54號,高雄市左營區新上里28鄰立文路54號,22.664576,120.305805,,高雄市,左營區
5902030287,慈德藥局,07-3416212,高雄市左營重愛路53號,高雄市左營區重愛路53號,22.683076,120.318646,,高雄市,左營區
5902030303,翔生藥局,07-5827329,高雄市左營區尾南里左營大路514號,高雄市左營區尾南里10鄰左營大路514號,22.689212,120.29535200000001,,高雄市,左營區
5902030312,吉辰藥局,07-5815069,高雄市左營區左營大路41之1號,高雄市左營區埤西里9鄰左營大路41之1號,22.681085999999997,120.287573,,高雄市,左營區
5902030410,重仁藥局,07-5824083,高雄市左營區左營大路408號,高雄市左營區廟東里12鄰左營大路408號,22.687253,120.293472,,高雄市,左營區
5902030634,有機藥局,07-3596429,高雄市左營區榮耀街3號,高雄市左營區福山里50鄰榮耀街3號,22.679346,120.32159899999999,,高雄市,左營區
5902030643,新高橋藥局,07-3100696,高雄市左營區民族一路1028號,高雄市左營區福山里20鄰民族一路1028號,22.682554999999997,120.32011299999999,109.01.23至109.01.29春節連續假期照常營業,高雄市,左營區
5902031882,崇光藥局,07-3452211,高雄市左營區華夏路755號,高雄市左營區新光里37鄰華夏路755號,22.679029999999997,120.302687,,高雄市,左營區
5902031999,平安藥局,07-5833688,高雄市左營區中華一路5之1號,高雄市左營區果峰里3鄰中華一路5之1號,22.669641,120.286872,,高雄市,左營區
5902032174,光明健保藥局,07-5812499,高雄市左營區翠華路601巷83號,高雄市左營區海勝里15鄰翠華路601巷83號,22.672767999999998,120.289323,,高雄市,左營區
5902032218,和信藥師健保藥局,07-3419363,高雄市左營區崇德路267號,高雄市左營區新光里12鄰崇德路267號,22.675603,120.303724,,高雄市,左營區
5902032227,政大聯合藥局,07-3454713,高雄市左營區自由三路506號,高雄市左營區菜公里18鄰自由三路506號,22.678037,120.313552,,高雄市,左營區
5902032370,好幸福專業藥局,07-5506816,高雄市左營區明華一路220號,高雄市左營區新上里31鄰明華一路220號,22.663184,120.3055,,高雄市,左營區
5902032432,威林藥局,07-3414243,高雄市左營區華夏路721號,高雄市左營區新光里10鄰華夏路721號,22.678451000000003,120.302298,星期一~五早上9:00~晚上9:00，星期日早上11:00~晚上8:00執業,高雄市,左營區
5902032441,健怡藥局,07-5821891,高雄市左營區翠峰路40號,高雄市左營區海勝里4鄰翠峰路40號,22.67229,120.28965900000001,春節休假1月24.25.26日,高雄市,左營區
5902032450,可達藥局,07-3420182,高雄市左營區榮德街177號,高雄市左營區福山里67鄰榮德街177號,22.683584,120.32052900000001,營業時間：週一至週五的上午9點到下午6點，週末休息,高雄市,左營區
5902032487,必健藥局,07-5584259,高雄市左營區自由二路90號,高雄市左營區新上里20鄰自由二路90號,22.659542000000002,120.30902900000001,AM:09   PM:11,高雄市,左營區
5902032521,合康健保藥局,07-5509667,高雄市左營區裕誠路188號,高雄市左營區新上里13鄰裕誠路188號,22.664463,120.31086599999999,,高雄市,左營區
5902032530,杏光藥局,07-3454432,高雄市左營區果峰街47巷1號1樓,高雄市左營區果峰里1鄰果峰街47巷1號,22.670301000000002,120.286946,營業時間不固定，請洽詢藥局。,高雄市,左營區
5902032647,健智美藥局,07-5580888,高雄市左營區富國路98號,高雄市左營區新上里54鄰富國路98號,22.659095999999998,120.30675900000001,,高雄市,左營區
5902032665,安欣藥師藥局,07-5506620,高雄市左營區大順一路552號1樓,高雄市左營區新上里41鄰大順一路552號,22.656475,120.303634,,高雄市,左營區
5902032674,辰暘藥局,07-5588545,高雄市左營區富民路120號1、2樓,高雄市左營區新上里36鄰富民路120號,22.660691,120.305365,服務時間9:00-22:30,高雄市,左營區
5902040014,成吉藥局,07-3513339,高雄市楠梓區楠梓東街74號,高雄市楠梓區享平里12鄰楠梓東街74號,22.729657,120.33006699999999,,高雄市,楠梓區
5902040041,橘井藥局,07-3511869,高雄市楠梓區楠梓路129號,高雄市楠梓區東寧里9鄰楠梓路129號,22.730256,120.32858200000001,週一~週日,高雄市,楠梓區
5902040050,富翔藥局,07-3516365,高雄市楠梓區常德路307號,高雄市楠梓區清豐里37鄰常德路307號,22.73691,120.33698799999999,,高雄市,楠梓區
5902040069,新友藥局,07-3653534,高雄市楠梓區萬昌路111號,高雄市楠梓區建昌里2鄰萬昌街111號,22.711935,120.289538,,高雄市,楠梓區
5902040087,世詠藥局,07-3539869,高雄市楠梓區楠都東街138號,高雄市楠梓區中陽里11鄰楠都東街138號,22.725315,120.326169,,高雄市,楠梓區
5902040096,宗隆藥局,07-3622203,高雄市楠梓區右昌街220號,高雄市楠梓區建昌里2鄰右昌街220號,22.711799,120.289317,不休診,高雄市,楠梓區
5902040112,丁丁楠梓藥局,07-3533743,高雄市楠梓區建楠路130、132、134號,高雄市楠梓區惠楠里10鄰建楠路246之3號,22.727313,120.32468200000001,,高雄市,楠梓區
5902040158,黃藥局,07-3515700,高雄市楠梓區惠楠里建楠路186號,高雄市楠梓區惠楠里5鄰建楠路186號,22.727157000000002,120.326103,中午12:00-13:30休息,高雄市,楠梓區
5902040185,東初藥局,07-3511261,高雄市楠梓區楠梓路32號,高雄市楠梓區享平里10鄰楠梓路32號,22.728731,120.330041,,高雄市,楠梓區
5902040210,益民藥局,07-3522161,高雄市楠梓區建楠路47號,高雄市楠梓區中陽里10鄰建楠路47號,22.726695,120.328771,,高雄市,楠梓區
5902040229,進昇藥局,07-3652334,高雄市楠梓區德賢路202號,高雄市楠梓區翠屏里44鄰德賢路202號,22.726939,120.306775,,高雄市,楠梓區
5902040238,筆秀藥局,07-3622412,高雄市楠梓區青埔街152號,高雄市楠梓區惠民里17鄰青埔街152號,22.729561,120.322197,,高雄市,楠梓區
5902040274,千惠藥局,07-3631268,高雄市楠梓區和光街181號,高雄市楠梓區和昌里7鄰和光街181號,22.708866,120.295874,"上午8:00~12:00,12:00~14:30休息14;30-21:00;",高雄市,楠梓區
5902040498,順明藥局,07-3615574,高雄市楠梓區和光街65號,高雄市楠梓區和昌里21鄰和光街65號,22.707168,120.293949,,高雄市,楠梓區
5902040532,聯亞藥局,07-3638387,高雄市揇梓區軍校路710號,高雄市楠梓區軍校路710號,22.7078159,120.2929685,,高雄市,楠梓區
5902041226,正人藥師藥局,07-3652942,高雄市楠梓區和昌里軍校路672號,高雄市楠梓區和昌里23鄰軍校路672號,22.707074,120.29304499999999,,高雄市,楠梓區
5902042269,常禾藥局,07-3537431,高雄市楠梓區常德路333號一樓,高雄市楠梓區清豐里37鄰常德路333號,22.737498000000002,120.337193,,高雄市,楠梓區
5902042376,佶辰藥局,07-3662802,高雄市楠梓區德民路641號1Ｆ,高雄市楠梓區加昌里1鄰德民路641號,22.722368,120.296194,9:00am~10:00pm,高雄市,楠梓區
5902042447,建佑藥局,07-3626893,高雄市楠梓區右昌街191號,高雄市楠梓區泰昌里1鄰右昌街191號,22.711535,120.288936,每日8;00至22;30,高雄市,楠梓區
5902042474,誠群藥局,07-3661733,高雄市楠梓區樂群路182號1樓,高雄市楠梓區加昌里20鄰樂群路182號,22.718866000000002,120.29713899999999,,高雄市,楠梓區
5902042492,合德中西藥師藥局,07-3581291,高雄市楠梓區楠梓路486號,高雄市楠梓區清豐里19鄰楠梓路486號,22.738119,120.324405,,高雄市,楠梓區
5902042563,天健藥局,07-3634179,高雄市楠梓區後昌路1087號,高雄市楠梓區建昌里21鄰後昌路1087號,22.717185,120.29219599999999,星期日及春節初一至初五 休 其餘全年無休,高雄市,楠梓區
5902042590,德賢藥師藥局,07-3606056,高雄市楠梓區德賢路551號,高雄市楠梓區翠屏里40鄰德賢路551號,22.72533,120.300177,,高雄市,楠梓區
5902042657,皇慶藥局,07-3643352,高雄市楠梓區和光街191號,高雄市楠梓區和昌里5鄰和光街191號,22.709029,120.296057,,高雄市,楠梓區
5902042661,元春中西藥師藥局,07-3605656,高雄市楠梓區後昌路837巷45.47號,高雄市楠梓區隆昌里12鄰後昌路837巷71號,22.710272,120.293201,,高雄市,楠梓區
5902042714,長義藥局,07-3640593,高雄市楠梓區惠民路48號,高雄市楠梓區翠屏里11鄰惠民路48號,22.724835000000002,120.29854399999999,7/3 晚上休息,高雄市,楠梓區
5902042769,家安藥局,07-3600066,高雄市楠梓區後昌新路13號1樓,高雄市楠梓區宏昌里12鄰後昌新路13號,22.718438,120.2917,6/7早午晚6/8早午晚,高雄市,楠梓區
5902050092,明曜藥局,07-3803807,高雄市三民區澄和路96號,高雄市三民區本揚里10鄰澄和路96號,22.644806,120.34406000000001,,高雄市,三民區
5902050154,杏安藥局,07-3111606,高雄市三民區十全一路91 號,高雄市三民區德智里16鄰十全一路91號,22.644748,120.310827,,高雄市,三民區
5902050298,瑞鶴藥局,07-3862757,高雄市三民區寶德里義德路25號,高雄市三民區寶德里24鄰義德路25號,22.643009,120.335194,下午2PM~4PM休息,高雄市,三民區
5902050323,信彰藥師藥局,07-3422376,高雄市三民區鼎中路627號,高雄市三民區鼎力里20鄰鼎中路627號,22.671893,120.32088999999999,,高雄市,三民區
5902050350,日星藥局,07-3845188,高雄市三民區寶龍里惠德街38號,高雄市三民區寶龍里20鄰惠德街38號,22.647405,120.324091,,高雄市,三民區
5902050378,安成藥局,07-3229295,高雄市三民區察哈爾二街63號,高雄市三民區安邦里13鄰察哈爾二街63號,22.647659,120.30095700000001,,高雄市,三民區
5902050387,合祥藥局,07-3830180,高雄市三民區本元里昭良街68號,高雄市三民區本元里15鄰昭良街68號,22.652931,120.332504,,高雄市,三民區
5902050958,安信藥局,07-3825577,高雄市三民區灣中里鼎山街665號,高雄市三民區灣中里5鄰鼎山街665號,22.649531,120.316392,,高雄市,三民區
5902051106,順發藥局,07-3832329,高雄市三民區建工路496號,高雄市三民區灣利里1鄰建工路496號,22.651203,120.326555,不定期休息,高雄市,三民區
5902051222,利民藥局,07-3125436,高雄市三民區孝順街74號,高雄市三民區同德里8鄰孝順街74號,22.643095000000002,120.31281299999999,,高雄市,三民區
5902051240,明皇藥局,07-3860121,高雄市三民區寶國里義華路181號,高雄市三民區寶國里24鄰義華路181號,22.642757,120.339945,,高雄市,三民區
5902051259,昱林藥局,07-3863286,高雄市三民區永年街67號,高雄市三民區安吉里20鄰永年街67號,22.64177,120.317701,,高雄市,三民區
5902051268,上正藥師藥局,07-2223355,高雄市三民區憲政路255號,高雄市三民區博惠里32鄰憲政路255號,22.636473000000002,120.318532,,高雄市,三民區
5902051642,安寧藥局,07-3217585,高雄市三民區嫩江街39號,高雄市三民區精華里9鄰嫩江街39號,22.642083,120.298146,,高雄市,三民區
5902051786,億生藥局,07-2873436,高雄市三民區南台路200號,高雄市三民區建東里4鄰南台路200號,22.637062,120.298158,服務時間8:30-23:00,高雄市,三民區
5902051866,久大藥局,07-3858116,高雄市三民區本文里立忠路32號1Ｆ,高雄市三民區本文里7鄰立忠路32號,22.653181,120.32526599999998,,高雄市,三民區
5902053833,建銘藥局,07-3133460,高雄市三民區吉林街262號,高雄市三民區安東里11鄰吉林街262號,22.648181,120.306817,,高雄市,三民區
5902054689,善全藥局,07-3960269,高雄市三民區義華路391號,高雄市三民區寶泰里5鄰義華路391號,22.643387,120.33318999999999,,高雄市,三民區
5902054741,文安學藥局,07-3809400,高雄市三民區寶業里覺民路62號,高雄市三民區寶業里5鄰覺民路62號,22.639129,120.34271299999999,,高雄市,三民區
5902054858,勝發藥局,07-3474780,高雄市三民區金鼎路350號,高雄市三民區鼎中里17鄰金鼎路350號,22.665205,120.319724,,高雄市,三民區
5902055480,建保藥局,07-3920433,高雄市三民區陽明路413號,高雄市三民區本上里20鄰陽明路413號,22.645666000000002,120.342444,,高雄市,三民區
5902056638,柏仁藥局,07-3976016,高雄市三民區覺民路504號,高雄市三民區寶安里26鄰覺民路504號,22.640917,120.33166499999999,,高雄市,三民區
5902056692,大樂藥局,07-3501052,高雄市三民區明誠二路16號一樓,高雄市三民區鼎泰里4鄰明誠二路16號,22.659948,120.315298,,高雄市,三民區
5902056718,岱安藥局,07-3219946,高雄市三民區熱河二街23號,高雄市三民區德行里12鄰熱河二街23號,22.643898,120.301782,,高雄市,三民區
5902056754,大家藥局,07-3107632,高雄市三民區鼎中路229號1樓,高雄市三民區鼎泰里25鄰鼎中路229號,22.664209,120.31910400000001,每周日公休,高雄市,三民區
5902056807,長慶藥局,07-3105835,高雄市三民區金鼎路310號,高雄市三民區鼎中里16鄰金鼎路310號,22.665128,120.32069299999999,,高雄市,三民區
5902056825,新正興藥局,07-3892646,高雄市三民區正興路100號,高雄市三民區正興里21鄰正興路100號,22.646107999999998,120.320546,,高雄市,三民區
5902056923,鴻慶藥局,07-9536166,高雄市三民區裕誠路70號,高雄市三民區鼎泰里65鄰裕誠路70號,22.663953,120.314073,,高雄市,三民區
5902057126,民安藥局,07-3121381,高雄市三民區嫩江街70號,高雄市三民區精華里23鄰嫩江街70號,22.642826,120.298528,,高雄市,三民區
5902057144,欣仁惠藥局,07-3837833,高雄市三民區大昌二路248號,高雄市三民區寶泰里13鄰大昌二路248號,22.645286,120.33226299999998,,高雄市,三民區
5902057162,台安藥局,07-3972340,高雄市三民區華德街149號1樓,高雄市三民區正順里14鄰華德街149號,22.648478,120.321532,,高雄市,三民區
5902057288,育英藥局,07-3824467,高雄市三民區灣子里和順街39號,高雄市三民區灣子里19鄰和順街39號,22.653357999999997,120.315945,,高雄市,三民區
5902057368,崧民藥師藥局,07-3102496,高雄市三民區金鼎路228號,高雄市三民區鼎西里19鄰金鼎路228號,22.664834,120.323788,服務時間9:00-22:30,高雄市,三民區
5902057484,永勝藥局,07-3814643,高雄市三民區褒忠街114號,高雄市三民區寶德里17鄰褒忠街112號,22.642264,120.33418400000001,,高雄市,三民區
5902057493,上泰藥局,07-3987396,高雄市三民區鼎山街569號,高雄市三民區灣中里23鄰鼎山街569號,22.651478,120.31769399999999,營業時間上午10晚上22:30,高雄市,三民區
5902057500,陽明藥局,07-3960376,高雄市三民區陽明路287號,高雄市三民區本上里22鄰陽明路287號,22.64347,120.34201200000001,週一至週六執業時間為上午9:00~ 晚上10:00，星期日休息。,高雄市,三民區
5902057519,伍陸藥局,07-3890676,高雄市三民區正興路94號,高雄市三民區正興里20鄰正興路94號,22.645974,120.32081399999998,,高雄市,三民區
5902057546,華南藥局,07-3127483,高雄市三民區中和街124號,高雄市三民區力行里5鄰中和街124號,22.63941,120.28778700000001,週日不定期休息,高雄市,三民區
5902057680,健爾康藥局,07-3965658,高雄市三民區正興路23號,高雄市三民區寶龍里5鄰正興路23號,22.645602,120.322553,,高雄市,三民區
5902057733,新久億藥局,07-3986909,高雄市三民區正興路183號,高雄市三民區正興里6鄰正興路183號,22.647459,120.319598,,高雄市,三民區
5902057822,建工丁丁藥局,07-3830841,高雄市三民區建工路568號,高雄市三民區灣勝里13鄰建工路568號,22.650152,120.324366,,高雄市,三民區
5902057831,愛橋藥局,07-3945146,高雄市三民區陽明路192號,高雄市三民區寶業里18鄰陽明路192號,22.64207,120.342171,109.01.23至109.01.29春節連續假期照常營業,高雄市,三民區
5902057902,利安藥局,07-3965550,高雄市三民區建工路545號,高雄市三民區正順里14鄰建工路545號,22.648541,120.32128300000001,,高雄市,三民區
5902057920,必好藥局,07-3851751,高雄市三民區義華路460號,高雄市三民區寶興里26鄰義華路460號,22.643561,120.331294,,高雄市,三民區
5902057939,朝陽健保藥局,07-3839886,高雄市三民區陽明路57號1樓,高雄市三民區寶華里7鄰陽明路57號,22.638707,120.34103600000002,,高雄市,三民區
5902057948,振源藥局,07-3112541,高雄市三民區熱河一街355號1樓,高雄市三民區達德里9鄰熱河一街355號,22.643653,120.30613000000001,"營業時間0800-2230,全年無休",高雄市,三民區
5902060025,連作藥局,07-2154716,高雄市新興區大同一路203－1號,高雄市新興區榮治里6鄰大同一路203之1號,22.628501,120.30031100000001,,高雄市,新興區
5902060132,成益藥局,07-2265015,高雄市新興區德望里復興一路4之2號,高雄市新興區德望里8鄰復興一路4之2號,22.627948,120.30809199999999,全年無休,高雄市,新興區
5902060150,永明藥局,07-2619832,高雄市新興區仁智街223號,高雄市新興區振華里15鄰仁智街223號,22.62084,120.302699,,高雄市,新興區
5902061540,長青藥局,07-2229220,高雄市新興區六合路114號,高雄市新興區文昌里15鄰六合路114號,22.632226,120.315867,,高雄市,新興區
5902061577,銘泰藥局,07-2855165,高雄市新興區自立二路166號,高雄市新興區長驛里10鄰自立二路166號,22.63363,120.298171,,高雄市,新興區
5902061899,元盛藥局,07-2228183,高雄市新興區六合路153號,高雄市新興區文昌里5鄰六合路153號,22.631860999999997,120.314944,,高雄市,新興區
5902071528,岩生藥局,07-2863608,高雄市前金區自立一路15－1號,高雄市前金區三川里9鄰自立一路15之1號,22.634368,120.297518,,高雄市,前金區
5902071537,大衛藥局,07-2859958,高雄市前金區中華三路188號,高雄市前金區草江里14鄰中華三路188號,22.632181,120.29500800000001,,高雄市,前金區
5902071546,中華藥局,07-2712779,高雄市前金區中華四路363號,高雄市前金區文西里18鄰中華四路363號,22.621369,120.29866899999999,清明節休假為4/5~4/7,高雄市,前金區
5902080036,瑞林藥局,07-3312146,高雄市苓雅區興中一路282號,高雄市苓雅區廣澤里17鄰興中一路282號,22.616197,120.305586,,高雄市,苓雅區
5902080287,佳鴻中西藥局,07-7497103,高雄市苓雅區文昌路11號,高雄市苓雅區正仁里12鄰文昌路11號,22.631002,120.338422,,高雄市,苓雅區
5902080312,正和藥局,07-2265377,高雄市苓雅區福建路362號,高雄市苓雅區林安里3鄰福建街362號,22.6266,120.313825,,高雄市,苓雅區
5902080349,瑞士藥局,07-7493348,高雄市苓雅區建國一路62巷25號,高雄市苓雅區正仁里10鄰建國一路62巷25號,22.631501999999998,120.33716100000001,,高雄市,苓雅區
5902080376,政德藥局,07-7114371,高雄市苓雅區正大里武廟路29號,高雄市苓雅區正大里19鄰武廟路29號,22.629953,120.331731,,高雄市,苓雅區
5902080465,廣德泰藥局,07-3340769,高雄市苓雅區苓雅二路76號,高雄市苓雅區田西里5鄰苓雅二路76號,22.617616,120.299724,,高雄市,苓雅區
5902080474,弘宗藥局,07-7211088,高雄市苓雅區武智街2號,高雄市苓雅區福東里16鄰武智街2號,22.623034,120.335649,,高雄市,苓雅區
5902080518,福海藥局,07-7618855,高雄市苓雅區武慶三路58號,高雄市苓雅區福地里17鄰武慶三路58號,22.619578,120.33195900000001,,高雄市,苓雅區
5902080527,三和藥局,07-7220808,高雄市苓雅區廣州二街117號,高雄市苓雅區林興里4鄰廣州二街117號,22.618206,120.319313,,高雄市,苓雅區
5902080545,柏松藥局,07-7119786,高雄市苓雅區輔仁路175號,高雄市苓雅區正大里9鄰輔仁路175號,22.630646,120.33318799999999,週一~週五08:30-23:00週六09:00-23:00週日09:00-22:00,高雄市,苓雅區
5902080616,一加藥局,07-7212748,高雄市苓雅區和平一路四二號,高雄市苓雅區林德里11鄰和平一路42號,22.620925,120.32176000000001,,高雄市,苓雅區
5902080634,京城藥局,07-7227737,高雄市苓雅區林德街18號,高雄市苓雅區中正里18鄰林德街18號,22.623947,120.31641100000002,,高雄市,苓雅區
5902080741,天新藥局,07-3342754,高雄市苓雅區華堂里林森二路1－3號,高雄市苓雅區華堂里10鄰林森二路1之3號,22.615485999999997,120.30823500000001,,高雄市,苓雅區
5902080803,功安中西大藥局,07-7215949,高雄市苓雅區三多二路291號,高雄市苓雅區林興里20鄰三多二路291號,22.618617999999998,120.319502,,高雄市,苓雅區
5902080858,福興藥局,07-3331862,高雄市苓雅區成功一路52號,高雄市苓雅區城北里6鄰成功一路52號,22.613124,120.298285,,高雄市,苓雅區
5902080894,苓中藥局,07-3311667,高雄市苓雅區永平路64號,高雄市苓雅區苓中里6鄰永平路64號,22.615604,120.293865,,高雄市,苓雅區
5902081015,明群藥局,07-7254953,高雄市苓雅區英明路54號,高雄市苓雅區英明里19鄰英明路54號,22.612759,120.32527900000001,,高雄市,苓雅區
5902081186,寶麒藥局,07-7610355,高雄市苓雅區三多一路144號,高雄市苓雅區福西里1鄰三多一路144號,22.623062,120.331471,,高雄市,苓雅區
5902081328,東信藥局,07-7613309,高雄市苓雅區三多一路189號,高雄市苓雅區福海里15鄰三多一路189號,22.622575,120.331317,,高雄市,苓雅區
5902083457,順一藥局,07-3330011,高雄市苓雅區田西里成功一路210號,高雄市苓雅區田西里12鄰成功一路210號,22.616963000000002,120.296852,中午12點至3點休息,高雄市,苓雅區
5902083582,健智藥局,07-7249153,高雄市苓雅區四維二路96之2號,高雄市苓雅區林泉里11鄰四維二路96之2號,22.622577,120.31919599999999,,高雄市,苓雅區
5902083591,晨安藥局,07-3365463,高雄市苓雅區興中一路160號,高雄市苓雅區日中里14鄰興中一路160號,22.617532999999998,120.309591,,高雄市,苓雅區
5902084703,瑞生藥局,07-3305239,高雄市苓雅區自強三路31號,高雄市苓雅區城北里4鄰自強三路31號,22.613762,120.299641,,高雄市,苓雅區
5902084749,琉璃光藥師藥局,07-7160930,高雄市苓雅區四維一路292號之一樓,高雄市苓雅區奏捷里8鄰四維一路292號,22.624204000000002,120.324381,,高雄市,苓雅區
5902084776,杏合藥局,07-7268966,高雄市苓雅區福德二路216號,高雄市苓雅區五福里12鄰福德二路216號,22.63394,120.32838500000001,,高雄市,苓雅區
5902084785,新良安藥局,07-3386980,高雄市苓雅區苓雅二路106號,高雄市苓雅區田西里3鄰苓雅二路106號,22.617304999999998,120.29872399999999,,高雄市,苓雅區
5902084801,邱吉祥藥局,07-2226055,高雄市苓雅區凱旋二路135號,高雄市苓雅區凱旋里11鄰凱旋二路135號,22.629169,120.32178200000001,,高雄市,苓雅區
5902084856,聖安藥局,07-7716813,高雄市苓雅區建華街303號,高雄市苓雅區林貴里4鄰建華街303號,22.61799,120.323819,,高雄市,苓雅區
5902085031,上好藥局,07-7266863,高雄市苓雅區四維一路六三號一樓,高雄市苓雅區永康里5鄰四維一路63號,22.625706,120.32950500000001,,高雄市,苓雅區
5902085139,健福藥局,07-3381746,高雄市苓雅區永富街10號,高雄市苓雅區普天里16鄰永富街10號,22.618898,120.316375,上午07:30~12:00 下午15:00~19:30,高雄市,苓雅區
5902085148,召祐健保藥局,07-7493719,高雄市苓雅區正義路93號,高雄市苓雅區正仁里14鄰正義路93號,22.630370000000003,120.338493,,高雄市,苓雅區
5902090103,文仁藥局,07-8413116,高雄市前鎮區明正里草衙二路460號,高雄市前鎮區明正里7鄰草衙二路460號,22.579856,120.322957,,高雄市,前鎮區
5902090121,意文藥局,07-7226570,高雄市前鎮區瑞華里武營路183號,高雄市前鎮區瑞華里8鄰武營路183號,22.60991,120.33739399999999,,高雄市,前鎮區
5902090167,勝惠藥局,07-3354766,高雄市前鎮區忠孝里三多三路71號,高雄市前鎮區忠孝里19鄰三多三路71號,22.616298,120.312202,,高雄市,前鎮區
5902090185,一統藥局,07-7710633,高雄市前鎮區瑞崗里瑞和街251號,高雄市前鎮區瑞崗里1鄰瑞和街251號,22.605522,120.326798,,高雄市,前鎮區
5902090363,八仙藥局,07-7270001,高雄市前鎮區瑞隆路251號,高雄市前鎮區瑞隆里9鄰瑞隆路251號,22.605529999999998,120.333099,,高雄市,前鎮區
5902090765,家安大藥局,07-7137711,高雄市前鎮區崗山南街342巷21號,高雄市前鎮區瑞平里22鄰崗山南街342巷21號,22.602104,120.332275,,高雄市,前鎮區
5902090827,博平藥局,07-8311814,高雄市前鎮區草衙二路377號,高雄市前鎮區草衙里13鄰草衙二路377號,22.578078,120.32245,,高雄市,前鎮區
5902090970,民光藥局,07-3335362,高雄市前鎮區林森三路48號,高雄市前鎮區西甲里3鄰林森三路48號,22.611112,120.307606,,高雄市,前鎮區
5902091128,北京藥局,07-7113100,高雄市前鎮區公正路31號,高雄市前鎮區瑞平里12鄰公正路31號,22.602908,120.332182,早上8點至晚上11點,高雄市,前鎮區
5902092205,百宏中西大藥局,07-3386719,高雄市前鎮區復興三路194號,高雄市前鎮區興中里5鄰復興三路194號,22.613111,120.31166699999999,109年農曆春節假期未休假,高雄市,前鎮區
5902092296,迎廣藥局,07-3321466,高雄市前鎮區林森三路150號2樓,高雄市前鎮區盛興里9鄰林森三路150號,22.613571,120.308862,,高雄市,前鎮區
5902092321,彥芳藥局,07-3302007,高雄市前鎮區長江街65號1樓,高雄市前鎮區興東里17鄰長江街65號,22.609927,120.31558600000001,,高雄市,前鎮區
5902092358,惠芳藥局,07-5370650,高雄市前鎮區一心一路486號,高雄市前鎮區興東里12鄰一心一路486號,22.609948000000003,120.314136,,高雄市,前鎮區
5902092410,旺盛藥局,07-7512899,高雄市前鎮區永豐路108號,高雄市前鎮區瑞昌里11鄰永豐路108號,22.606499,120.33368300000001,,高雄市,前鎮區
5902092492,元生藥局,07-8156356,高雄市前鎮區鎮興路226號1樓,高雄市前鎮區興邦里1鄰鎮興路226號,22.59305,120.311675,,高雄市,前鎮區
5902092554,協和藥局,07-5377769,高雄市前鎮區中華五路983號,高雄市前鎮區忠純里9鄰中華五路983號,22.60221,120.306017,除星期天休假 其他正常上班,高雄市,前鎮區
5902092572,羿昇藥局,07-3387737,高雄市前鎮區一心一路492號,高雄市前鎮區興東里12鄰一心一路492號,22.610011,120.313974,109/1/23~109/1/28 休診,高雄市,前鎮區
5902092643,晏昇藥局,07-7235136,高雄市前鎮區凱旋三路81號,高雄市前鎮區竹南里25鄰凱旋三路81號,22.606776999999997,120.324704,,高雄市,前鎮區
5902092787,吉昌藥局,07-3368782,高雄市前鎮區正勤路100號,高雄市前鎮區忠純里2鄰正勤路100號,22.602625,120.305627,,高雄市,前鎮區
5902092887,民權丁丁藥局,07-9650177,高雄市前鎮區民權二路345號,高雄市前鎮區西山里33鄰民權二路345號,22.610048000000003,120.312779,,高雄市,前鎮區
5902092896,廣泰藥局,07-7162166,高雄市前鎮區瑞北路56號,高雄市前鎮區瑞華里4鄰瑞北路56號,22.609312,120.33464199999999,,高雄市,前鎮區
5902092910,健家藥局,07-3389986,高雄市前鎮區二聖二路45號,高雄市前鎮區興東里2鄰二聖二路45號,22.612929,120.31645300000001,,高雄市,前鎮區
5902092956,慈濟健保藥局,07-8159788,高雄市前鎮區鎮州路211號,高雄市前鎮區前鎮里18鄰鎮州路211號,22.588186999999998,120.308149,,高雄市,前鎮區
5902100033,旗后藥局,07-5715838,高雄市旗津區中洲三路715號,高雄市旗津區慈愛里3鄰中洲三路715號,22.610957,120.270513,,高雄市,旗津區
5902100042,千佑藥局,07-5712619,高雄市旗津區復興里中洲三路513號,高雄市旗津區復興里4鄰中洲三路513號,22.606076,120.273632,,高雄市,旗津區
5902101094,康富藥局,07-5710567,高雄市旗津區旗津二路220號,高雄市旗津區上竹里15鄰旗津二路220號,22.5765,120.295856,,高雄市,旗津區
5902110066,文祺藥局,07-8014066,高雄市小港區正苓里平治街112號,高雄市小港區正苓里31鄰平治街112號,22.567432999999998,120.35427,,高雄市,小港區
5902110093,鳳明中西大藥局,07-8011846,高雄市小港區二苓路247號,高雄市小港區二苓里8鄰二苓路247號,22.565341,120.34773899999999,,高雄市,小港區
5902110244,億大藥局,07-8014958,高雄市小港區三苓里永義街171號,高雄市小港區三苓里6鄰永義街171號,22.566734,120.34888400000001,,高雄市,小港區
5902110299,大裕藥局,07-8211467,高雄市小港區小港里小港路261號,高雄市小港區小港里8鄰小港路261號,22.563864000000002,120.335862,,高雄市,小港區
5902110324,新源興藥局,07-8015567,高雄市小港區宏平路298號,高雄市小港區濟南里11鄰宏平路298號,22.570166,120.361098,,高雄市,小港區
5902110422,臨生藥局,07-8711290,高雄市小港區鳳鳴路146－4號,高雄市小港區龍鳳里1鄰鳳鳴路146之4號,22.514672,120.358557,,高雄市,小港區
5902110431,龍祺藥局,07-8315352,高雄市小港區平和路111號,高雄市小港區港口里24鄰平和路111號,22.565721,120.333052,服務時間：週一到六：0700~0945；週日：0700~1200、1700~2030,高雄市,小港區
5902110593,慈林藥局,07-8718087,高雄市小港區鳳林路93號,高雄市小港區鳳林里8鄰鳳林路93號,22.526346,120.34636,,高雄市,小港區
5902110600,高泰藥局,07-7930043,高雄市小港區桂陽路7號,高雄市小港區桂林里15鄰桂陽路7號,22.581439000000003,120.35843999999999,,高雄市,小港區
5902110628,悅是康藥局,07-8010012,高雄市小港區漢民路276號,高雄市小港區正苓里36鄰漢民路276號,22.566654,120.35355,,高雄市,小港區
5902111661,康乃爾藥局,07-8026291,高雄市小港區漢民路413號2樓,高雄市小港區順苓里22鄰漢民路413號,22.56701,120.357745,,高雄市,小港區
5902111670,桂林活力藥師藥局,07-7931248,高雄市小港區桂陽路40號,高雄市小港區桂林里15鄰桂陽路40號,22.581941,120.357481,,高雄市,小港區
5902111698,康莊藥局,07-8063384,高雄市小港區康莊路69號一樓,高雄市小港區順苓里3鄰康莊路69號,22.568533,120.35596100000001,,高雄市,小港區
5902111796,力安藥師藥局,07-7918167,高雄市小港區桂陽路316號1樓,高雄市小港區桂林里13鄰桂陽路316號,22.582113,120.35221100000001,,高雄市,小港區
5902111938,丁丁藥局小港店,07-8603388,高雄市小港區宏平路85號,高雄市小港區泰山里13鄰宏平路85號,22.570965,120.36348999999998,,高雄市,小港區
5903010010,康健藥局,04-25279542,臺中市豐原區西勢里中山路373號,台中市豐原區西勢里1鄰中山路373號,24.249731,120.714752,,台中市,豐原區
5903010038,金宏健保藥局,04-25288262,臺中市豐原區安康路103號,台中市豐原區南陽里22鄰安康路103號,24.243031,120.72583799999998,,台中市,豐原區
5903010056,一加藥局,04-25237700,臺中市豐原區中正路195號,台中市豐原區中山里16鄰中正路195號,24.251659,120.718529,,台中市,豐原區
5903010118,理妍藥局,04-25270140,臺中市豐原區中正路379號,台中市豐原區西安里2鄰中正路379號,24.250768,120.71337199999999,,台中市,豐原區
5903010127,友誠藥局,04-25132371,臺中市豐原區豐東路401號1樓,台中市豐原區南村里17鄰豐東路401號,24.254566,120.73357,,台中市,豐原區
5903010145,維立藥局,04-25337605,臺中市豐原區豐南街12號1樓,台中市豐原區田心里16鄰豐南街12號,24.239493,120.71211399999999,,台中市,豐原區
5903010181,永豐藥局,04-25280088,臺中市豐原區中山路422號1樓,台中市豐原區東勢里1鄰中山路422號,24.247328,120.715291,,台中市,豐原區
5903010261,豐原西勢藥局,04-25262330,臺中市豐原區西勢路200號1樓,台中市豐原區社皮里27鄰西勢路200號,24.243768,120.706728,,台中市,豐原區
5903010270,福心藥局,04-25229292,臺中市豐原區中正路715號1樓,台中市豐原區社皮里18鄰中正路715號,24.249098999999998,120.70139499999999,,台中市,豐原區
5903010289,心美日藥局,04-25260703,臺中市豐原區中山路359號1樓,台中市豐原區西勢里3鄰中山路359號,24.249289,120.714918,,台中市,豐原區
5903010314,豐原百宏中西藥局,04-25242185,臺中市豐原區水源路595號1樓,台中市豐原區南村里13鄰水源路595號,24.255005,120.729573,,台中市,豐原區
5903010332,富田藥局,04-25225453,臺中市豐原區文昌街152號1樓,台中市豐原區西湳里20鄰文昌街152號,24.261251,120.716279,固定店休: 每月最後一個週日,台中市,豐原區
5903010341,昭仁藥局,04-25243559,臺中市豐原區南陽路140號,台中市豐原區北陽里35鄰南陽路140號,24.242641,120.73059599999999,,台中市,豐原區
5903010350,甲蒂健保藥局,04-25256028,臺中市豐原區豐東路308號,台中市豐原區北陽里16鄰豐東路308號,24.250931,120.73300800000001,,台中市,豐原區
5903010378,豐原啄木鳥藥局,04-25295340,臺中市豐原區中山路178號1樓,台中市豐原區田心里13鄰中山路178號,24.240076000000002,120.712021,,台中市,豐原區
5903010387,信宜藥局,04-25229912,臺中市豐原區中山路395號,台中市豐原區西勢里1鄰中山路395號,24.250212,120.71458700000001,,台中市,豐原區
5903010403,品安藥局,04-25270138,臺中市豐原區中山路405號,台中市豐原區西勢里1鄰中山路405號,24.250384,120.714533,,台中市,豐原區
5903010412,佑全豐原圓環東藥局,04-25246069,臺中市豐原區圓環東路548、550、552、554號,台中市豐原區圓環東路548號,24.24806,120.72714199999999,,台中市,豐原區
5903010421,長庚健保大藥局,04-25151867,臺中市豐原區中正路132號1樓,台中市豐原區頂街里4鄰中正路132號,24.251826,120.720183,,台中市,豐原區
5903010430,喜樂魚藥局,04-25200226,臺中市豐原區圓環東路613號1樓,台中市豐原區中陽里25鄰圓環東路613號,24.250645000000002,120.728179,,台中市,豐原區
5903010449,豐原藥局,04-25260119,臺中市豐原區新生北路206號之1（1樓）,台中市豐原區豐原里7鄰新生北路206之1號,24.2551,120.72189499999999,,台中市,豐原區
5903010458,心之藥局,04-25254959,臺中市豐原區中山路504號,台中市豐原區葫蘆里4鄰中山路504號,24.250094,120.71485700000001,,台中市,豐原區
5903010467,阜康藥局,04-25155977,臺中市豐原區中山路295號1樓,台中市豐原區田心里8鄰中山路298之1號,24.24389,120.714381,,台中市,豐原區
5903010485,大樹圓環藥局,04-25122212,臺中市豐原區圓環東路617號1樓,台中市豐原區中陽里25鄰圓環東路617號,24.250837,120.72826,,台中市,豐原區
5903010494,百宏大藥局,04-25131538,臺中市豐原區中正路860號1樓,台中市豐原區社皮里3鄰中正路860號,24.249408,120.70105900000001,,台中市,豐原區
5903020034,國良豐藥局,04-25885778,臺中市東勢區豐勢路21號1樓,台中市東勢區延平里1鄰豐勢路21號,24.247785,120.83178999999998,,台中市,東勢區
5903020043,向日葵藥局,04-25773428,臺中市東勢區豐勢路557號,台中市東勢區北興里1鄰豐勢路557號,24.25967,120.827234,,台中市,東勢區
5903020052,東勢福倫藥局,04-25876118,臺中市東勢區豐勢路438號,台中市東勢區東安里11鄰豐勢路438號,24.255860000000002,120.82898999999999,,台中市,東勢區
5903030012,康好藥局,04-26802149,臺中市大甲區三民路132－2號,台中市大甲區孔門里6鄰三民路132之2號,24.34851,120.621953,,台中市,大甲區
5903030030,大甲健康藥局,04-26805833,臺中市大甲區蔣公路242-1號1樓,台中市大甲區順天里16鄰蔣公路242號,24.347217999999998,120.61952099999999,,台中市,大甲區
5903030058,康達藥局,04-26862001,臺中市大甲區蔣公路266號1樓,台中市大甲區庄美里7鄰蔣公路266號,24.347448999999997,120.618874,,台中市,大甲區
5903030067,甲尚藥局,04-26760885,台中市大甲區順天路128號,台中市大甲區大甲里15鄰順天路128號,24.344499,120.62213200000001,,台中市,大甲區
5903030076,百禾藥局,04-26872538,臺中市大甲區仁愛街58號,台中市大甲區庄美里1鄰仁愛街58號,24.347174,120.618672,,台中市,大甲區
5903030085,廣元藥局,04-26872843,臺中市大甲區順天路146號1樓,台中市大甲區大甲里4鄰順天路146號,24.344953,120.622446,,台中市,大甲區
5903030110,大甲啄木鳥藥局,04-26804502,臺中市大甲區中山路1段905號,台中市大甲區薰風里1鄰中山路一段905號,24.343098,120.62509399999999,,台中市,大甲區
5903030138,聖佑藥局,04-26760156,臺中市大甲區中山路1段576號1樓,台中市大甲區南陽里10鄰中山路一段576號,24.341507,120.620075,,台中市,大甲區
5903030147,能德藥局,04-26873549,臺中市大甲區復興路22之1號,台中市大甲區順天里10鄰復興路22之1號,24.345985,120.62141299999999,營業時間:08:00-22:00,台中市,大甲區
5903030156,盈盈藥局,04-26804212,臺中市大甲區文武路18號,台中市大甲區朝陽里7鄰文武路18號,24.345817999999998,120.62598600000001,,台中市,大甲區
5903050050,關心藥局,04-26625182,臺中市沙鹿區光大路242號,台中市沙鹿區鹿寮里40鄰光大路242號,24.243806,120.56498799999999,,台中市,沙鹿區
5903050069,進騰藥局,04-26314418,臺中市沙鹿區鎮南路2段234號,台中市沙鹿區北勢里1鄰鎮南路二段234號,24.223944,120.56893899999999,8:10-22:00,台中市,沙鹿區
5903050087,仁暉健保處方藥局,04-26365626,臺中市沙鹿區向上路7段130號,台中市沙鹿區三鹿里25鄰向上路七段130號,24.206417000000002,120.564361,,台中市,沙鹿區
5903050096,沙鹿合和健保藥局,04-26320590,臺中市沙鹿區正義路2號,台中市沙鹿區埔子里16鄰正義路2號,24.209401999999997,120.56901200000001,,台中市,沙鹿區
5903050103,北勢進騰藥局,04-26330893,臺中市沙鹿區北勢東路509之7號1樓,台中市沙鹿區北勢里30鄰北勢東路509之7號,24.225264000000003,120.57601299999999,10:30-22:00,台中市,沙鹿區
5903050149,立好藥局,04-26522389,臺中市沙鹿區北勢東路693號1樓,台中市沙鹿區北勢里26鄰北勢東路693號,24.229574,120.57224599999999,,台中市,沙鹿區
5903050176,全國藥局,04-26627097,臺中市沙鹿區臺灣大道7段992號,台中市沙鹿區居仁里6鄰台灣大道七段992號,24.240737,120.562173,,台中市,沙鹿區
5903050185,好利藥局,04-26630087,臺中市沙鹿區中山路487－1號,台中市沙鹿區鹿寮里30鄰中山路487之1號,24.245396,120.56189199999999,,台中市,沙鹿區
5903050194,樂齊藥局,04-26338867,臺中市沙鹿區北中路86－1、86－2號,台中市沙鹿區北勢里29鄰北中路86號之1,24.228268,120.56920500000001,,台中市,沙鹿區
5903050201,鎮南藥局,04-26336160,臺中市沙鹿區鎮南路2段52號,台中市沙鹿區南勢里10鄰鎮南路二段52號,24.218301,120.57036799999999,,台中市,沙鹿區
5903050210,富康沙鹿藥局,04-26633399,臺中市沙鹿區沙田路142號1樓,台中市沙鹿區美仁里1鄰沙田路142號,24.236125,120.559526,,台中市,沙鹿區
5903050229,維康藥局,04-26524787,臺中市沙鹿區鎮南路2段412號1樓,台中市沙鹿區北勢里25鄰鎮南路二段412號,24.230285000000002,120.566585,,台中市,沙鹿區
5903050238,百岳大藥局,04-26359825,臺中市沙鹿區鎮南路二段77號1樓,台中市沙鹿區南勢里2鄰鎮南路二段77號,24.218948,120.56967900000001,,台中市,沙鹿區
5903060010,大芳藥局,04-26561755,臺中市梧棲區中央路1段907號,台中市梧棲區大庄里21鄰中央路一段907號,24.247419,120.53806599999999,,台中市,梧棲區
5903060038,梧棲玖裕藥局,04-26583909,臺中市梧棲區中和街85號,台中市梧棲區中正里33鄰中和街85號,24.255447,120.531604,,台中市,梧棲區
5903060056,瑞恩藥局,04-26576171,臺中市梧棲區港埠路1段827巷6號,台中市梧棲區草湳里45鄰港埠路一段827巷6號,24.24407,120.533222,,台中市,梧棲區
5903070016,泉興中西大藥局,04-25583883,臺中市后里區甲后路一段598號,台中市后里區后里里8鄰甲后路一段598號,24.309105,120.72153700000001,,台中市,后里區
5903070025,得安藥局,04-25585333,臺中市后里區四村路78號,台中市后里區墩東里9鄰四村路78號,24.304686,120.71287199999999,,台中市,后里區
5903070043,后禮藥局,04-25582413,臺中市后里區甲后路一段163號1樓,台中市后里區義里里16鄰甲后路一段163號,24.30921,120.728876,,台中市,后里區
5903070052,后里宏安藥局,04-25581036,臺中市后里區福音路28號1樓,台中市后里區墩東里11鄰福音路28號,24.305125,120.713406,,台中市,后里區
5903070061,豪銘藥局,04-25562991,臺中市后里區公安路68號,台中市后里區墩西里2鄰公安路68號,24.304691000000002,120.71126000000001,,台中市,后里區
5903070089,后里瑞士藥師藥局,04-25566999,臺中市后里區甲后路二段579號,台中市后里區眉山里6鄰甲后路二段579號,24.314369,120.68900500000001,,台中市,后里區
5903070098,祐恩藥局,04-25587518,臺中市后里區甲后路一段478號1樓,台中市后里區后里里3鄰甲后路一段478號,24.309078,120.72398700000001,國定例假日照常調劑藥服務。清明、端午、中秋節晚上休息。,台中市,后里區
5903070105,后里藥局,04-25590119,臺中市后里區文明路133號1樓,台中市后里區墩東里4鄰文明路133號,24.306786,120.716379,,台中市,后里區
5903070132,內埔瑞士藥師藥局,04-25566959,臺中市后里區中山路37號1樓,台中市后里區墩西里9鄰中山路37號,24.304459,120.71129199999999,,台中市,后里區
5903070141,甲后藥局,04-25577378,臺中市后里區甲后路一段253號1樓,台中市后里區義里里20鄰甲后路一段253號,24.309055999999998,120.726996,,台中市,后里區
5903080021,長生健保藥局,04-25610973,臺中市神岡區神岡路63號、65號,台中市神岡區神岡里15鄰神岡路63號,24.257476,120.660802,,台中市,神岡區
5903080030,捷達藥局,04-25225207,臺中市神岡區大漢街25號,台中市神岡區大社里18鄰大漢街25號,24.253516,120.69743899999999,,台中市,神岡區
5903080085,社南藥局,04-25616114,臺中市神岡區民生路24號1樓,台中市神岡區社南里7鄰民生路24號,24.246073000000003,120.68206200000002,,台中市,神岡區
5903080094,灃洲大藥局,04-25150169,臺中市神岡區豐洲路466－3號1樓,台中市神岡區豐洲里25鄰豐洲路466之3號,24.261794000000002,120.70450500000001,,台中市,神岡區
5903090054,美日康藥局,04-25382308,臺中市潭子區大新路58號,台中市潭子區福仁里9鄰大新路58號,24.202362,120.7075,,台中市,潭子區
5903090072,元康健保藥局,04-25353893,臺中市潭子區圓通南路196號1樓,台中市潭子區潭陽里21鄰圓通南路196號,24.207247,120.704278,,台中市,潭子區
5903090116,上宇藥局,04-25321258,臺中市潭子區中山路2段381號1樓,台中市潭子區潭陽里23鄰中山路二段381號,24.212962,120.70510700000001,,台中市,潭子區
5903090125,愛生藥師藥局,04-25321819,臺中市潭子區中山路2段491號,台中市潭子區潭秀里7鄰中山路二段491號,24.215937,120.70510900000001,,台中市,潭子區
5903090134,光陽藥局,04-25365607,臺中市潭子區福潭路505號1樓,台中市潭子區潭陽里12鄰福潭路505號,24.213916,120.71084099999999,,台中市,潭子區
5903090143,佳福藥局,04-25332982,臺中市潭子區中山路1段43－1號,台中市潭子區家興里6鄰中山路一段43號之1,24.191422,120.70231399999999,每日中午12:00至下午3:00休息,台中市,潭子區
5903090152,新舒康藥局,04-25344062,臺中市潭子區勝利路105號,台中市潭子區甘蔗里23鄰勝利路105號,24.209101,120.701029,,台中市,潭子區
5903090189,名方藥局,04-25341777,臺中市潭子區勝利路285號1樓,台中市潭子區甘蔗里11鄰勝利路285號,24.213212,120.70042,營業時間:AM0800~1200;PM1500~2200,台中市,潭子區
5903090223,均安藥局,04-25310998,臺中市潭子區興華一路503號1樓,台中市潭子區甘蔗里18鄰興華一路503號,24.214013,120.70137199999999,,台中市,潭子區
5903090303,安康藥局,04-25352796,臺中市潭子區潭興路三段87號,台中市潭子區甘蔗里17鄰潭興路三段87號,24.211504,120.70249,,台中市,潭子區
5903090312,惠安藥局,04-25340462,臺中市潭子區中山路二段362號,台中市潭子區潭秀里9鄰中山路二段362號,24.213476999999997,120.705428,,台中市,潭子區
5903090330,潭子炘星藥局,04-25320107,臺中市潭子區中山路一段97號1樓,台中市潭子區家福里1鄰中山路一段97號,24.193194000000002,120.702298,,台中市,潭子區
5903090349,久揚藥局,04-25356103,臺中市潭子區頭張路一段7號1樓,台中市潭子區家福里4鄰頭張路一段7號,24.194307000000002,120.701972,,台中市,潭子區
5903090358,信實藥局,04-25359220,臺中市潭子區大德北路69號1樓,台中市潭子區東寶里32鄰大德北路69號,24.205576999999998,120.677495,,台中市,潭子區
5903090367,成記藥局,04-25358076,臺中市潭子區潭興路三段93號1樓,台中市潭子區甘蔗里17鄰潭興路三段93號,24.211507,120.70236200000001,,台中市,潭子區
5903100019,永瑞藥局,04-25609969,臺中市大雅區民生路1段212號,台中市大雅區大雅里9鄰民生路一段212號,24.227534,120.65116599999999,,台中市,大雅區
5903100037,大雅東亞藥師大藥局,04-25605233,臺中市大雅區民生路1段22、22－1號,台中市大雅區上雅里22鄰民生路一段380號,24.229245000000002,120.654335,,台中市,大雅區
5903100046,躍獅佑仁藥局,04-25608256,臺中市大雅區雅環路2段287號,台中市大雅區上雅里13鄰雅環路二段287號,24.229188,120.648849,,台中市,大雅區
5903100055,大詮藥師藥局,04-25682767,臺中市大雅區民生路3段432號,台中市大雅區大楓里5鄰民生路三段432號,24.23441,120.665521,,台中市,大雅區
5903100064,炘星藥局,04-25668655,臺中市大雅區雅環路一段338號1樓,台中市大雅區二和里23鄰雅環路一段338號,24.22379,120.65369799999999,,台中市,大雅區
5903100082,大雅安德藥局,04-25604133,臺中市大雅區中清東路229號,台中市大雅區大雅里15鄰中清東路229號,24.224592,120.64688899999999,,台中市,大雅區
5903100091,樂心藥局,04-25682568,臺中市大雅區建興路143號,台中市大雅區三和里20鄰建興路143號,24.216461,120.66588999999999,,台中市,大雅區
5903100108,杏一大雅中清藥局,04-25601791,臺中市大雅區中清路四段31、33、35號,台中市大雅區六寶里17鄰中清路四段921號,24.240993,120.62995,,台中市,大雅區
5903100117,妙昌藥局,04-25664426,臺中市大雅區永和路194號,台中市大雅區大雅里16鄰永和路194號,24.222720000000002,120.647222,,台中市,大雅區
5903110051,新社千百岳大藥局,04-25821798,臺中市新社區興安路24、26號,台中市新社區新社里2鄰興安路110號,24.243344,120.80995,,台中市,新社區
5903130017,祐民健保藥局,04-26836736,臺中市外埔區甲后路三段1030號1樓,台中市外埔區大同里1鄰甲后路三段1030號,24.331986999999998,120.65323000000001,,台中市,外埔區
5903130026,博翔欣大藥局,04-26833312,臺中市外埔區重光路33－19號,台中市外埔區大同里8鄰重光路33之19號,24.331248000000002,120.652107,,台中市,外埔區
5903130035,政修藥局,04-26831881,臺中市外埔區中山路290號,台中市外埔區大同里20鄰中山路290號,24.330428,120.656857,,台中市,外埔區
5903140013,音聲藥局,04-26715318,臺中市大安區中松路18號1樓,台中市大安區中庄里3鄰中松路18號,24.346638000000002,120.587153,,台中市,大安區
5903140022,民安藥局,04-26711077,臺中市大安區中山南路283號,台中市大安區中庄里1鄰中山南路283號,24.345176000000002,120.58734199999999,,台中市,大安區
5903150019,統元藥局,04-23377588,臺中市烏日區中華路583號,台中市烏日區九德里25鄰中華路583號,24.107609,120.63419099999999,,台中市,烏日區
5903150028,全成烏日藥局,04-23352656,臺中市烏日區溪南路1段776號,台中市烏日區溪埧里1鄰溪南路一段776號,24.074226,120.642656,,台中市,烏日區
5903150037,杏益藥局,04-23364059,臺中市烏日區信義街172號,台中市烏日區仁德里19鄰信義街172號,24.104989,120.63933,下午13:00-15:00店休,台中市,烏日區
5903150055,明康藥局,04-23386157,臺中市烏日區中山路1段548－1號,台中市烏日區九德里25鄰中山路一段548之1號,24.107015,120.634961,,台中市,烏日區
5903150064,智盛藥局,04-23378286,臺中市烏日區中山路1段333號1樓,台中市烏日區仁德里1鄰中山路一段333號,24.108557,120.64128600000001,,台中市,烏日區
5903150091,學田藥局,04-23382230,臺中市烏日區學田路便行巷14號,台中市烏日區學田里9鄰學田路便行巷14號,24.120834,120.60743400000001,,台中市,烏日區
5903150108,仁厚藥局,04-23382375,臺中市烏日區一心街1號,台中市烏日區烏日里5鄰一心街1號,24.102118,120.62676499999999,,台中市,烏日區
5903150117,成功福倫藥局,04-23367018,臺中市烏日區榮和路61號1樓,台中市烏日區榮泉里24鄰榮和路61號,24.108767999999998,120.597154,,台中市,烏日區
5903150126,烏日安德藥局,04-23386925,臺中市烏日區榮和路151號、153號1樓,台中市烏日區榮泉里20鄰榮和路151號,24.110278,120.59773100000001,,台中市,烏日區
5903160015,追分藥局,04-26931439,臺中市大肚區沙田路一段402號1樓,台中市大肚區福山里2鄰沙田路一段402號,24.122717,120.566717,,台中市,大肚區
5903160033,新庄藥局,04-26910209,臺中市大肚區遊園路2段223－1號,台中市大肚區自強里5鄰遊園路二段223之1號,24.173831,120.580798,,台中市,大肚區
5903170093,杏嘉藥局,04-26357889,臺中市龍井區龍山街148號1樓,台中市龍井區山腳里19鄰龍山街148號,24.212293,120.54909099999999,,台中市,龍井區
5903170100,全安堂藥局,04-26394332,臺中市龍井區中央路一段220號,台中市龍井區龍津里20鄰中央路一段220號,24.201973000000002,120.523657,,台中市,龍井區
5903180053,皇昇藥局,04-23397749,臺中市霧峰區四德路556號1樓,台中市霧峰區四德里13鄰四德路556號,24.060084,120.664809,,台中市,霧峰區
5903180062,霧峰安德藥局,04-23300365,臺中市霧峰區中正路1135號1樓,台中市霧峰區甲寅里28鄰中正路1135號,24.070017,120.699178,,台中市,霧峰區
5903180115,永合藥局,04-23391910,臺中市霧峰區中正路965號,台中市霧峰區中正里10鄰中正路965號,24.065943,120.698559,,台中市,霧峰區
5903180133,正開心大藥局,04-23396940,臺中市霧峰區中正路951號1樓,台中市霧峰區中正里10鄰中正路951號,24.065647,120.69866200000001,,台中市,霧峰區
5903180142,峰正藥局,04-23303353,臺中市霧峰區中正路830號1樓,台中市霧峰區本堂里3鄰中正路830號,24.062439,120.69866100000002,,台中市,霧峰區
5903190022,藥源藥局,04-23955108,臺中市太平區中山路4段220號,台中市太平區新福里16鄰中山路四段220號,24.14817,120.701889,,台中市,太平區
5903190077,八醫健保藥局,04-23935050,臺中市太平區中山路2段357號,台中市太平區中山里4鄰中山路二段357號,24.15021,120.729725,,台中市,太平區
5903190086,太平永泰大藥局,04-22757418,臺中市太平區長億六街106號,台中市太平區永成里11鄰長億六街103號,24.117625,120.717272,,台中市,太平區
5903190139,劍橋藥局,04-22776619,臺中市太平區宜昌路552號1樓,台中市太平區宜昌里13鄰宜昌路552號,24.147576,120.71568300000001,,台中市,太平區
5903190148,亞洲藥師連鎖大藥局,04-23921681,臺中市太平區中山路2段458號,台中市太平區光明里14鄰中山路二段458號,24.149834,120.725229,,台中市,太平區
5903190157,春長藥局,04-22799286,臺中市太平區太平路147號,台中市太平區永成里2鄰太平路147號,24.120027,120.721193,,台中市,太平區
5903190184,太平中大藥局,04-22787846,臺中市太平區宜欣二路44號1樓,台中市太平區宜欣里24鄰宜欣二路44號,24.14525,120.716448,,台中市,太平區
5903190193,佑全太平藥局,04-23910016,臺中市太平區樹德路121號1樓,台中市太平區新高里2鄰樹德路121號,24.154444,120.71196599999999,,台中市,太平區
5903190228,中山德侑藥局,04-23920682,臺中市太平區中山路3段2之2號1樓,台中市太平區新吉里1鄰中山路三段2之2號,24.149421,120.72223500000001,,台中市,太平區
5903190264,安心藥局,04-23912042,臺中市太平區中山路3段28號1樓,台中市太平區新吉里1鄰中山路三段28號,24.149279999999997,120.72111000000001,"中秋節正常看診,看診時間以實際為主星期六營業至晚上9點",台中市,太平區
5903190273,太平小林健保藥局,04-23954436,臺中市太平區育賢路518號,台中市太平區新高里1鄰育賢路518號,24.158831,120.713326,,台中市,太平區
5903190282,雪仁藥局,04-22755053,臺中市太平區太平路509號,台中市太平區太平里17鄰太平路509號,24.124965,120.71413000000001,,台中市,太平區
5903190291,新平和藥局,04-22771262,臺中市太平區光興路827號1樓,台中市太平區光隆里1鄰光興路827號,24.112019,120.730695,,台中市,太平區
5903190308,達安藥局,04-23950982,臺中市太平區樹德路69巷6號1樓,台中市太平區新光里5鄰樹德路69巷6號,24.151637,120.710625,,台中市,太平區
5903190317,欣天然藥局,04-23982018,臺中市太平區樹德路296號1樓,台中市太平區新高里1鄰樹德路296號,24.157429,120.71268300000001,,台中市,太平區
5903190326,立德藥局,04-23952029,臺中市太平區新興路48號1樓,台中市太平區新興里11鄰新興路48號,24.159176000000002,120.712073,,台中市,太平區
5903190335,育賢德侑藥局,04-23920696,臺中市太平區育賢路107號、109號,台中市太平區新坪里22鄰育賢路107號,24.157677,120.721911,,台中市,太平區
5903190353,信康藥局,04-23960697,臺中市太平區樹德路98－1號,台中市太平區新高里11鄰樹德路98之1號,24.153085,120.711582,,台中市,太平區
5903190362,太平中山藥局,04-23959200,臺中市太平區中山路4段11號,台中市太平區新高里17鄰中山路四段11號,24.149306,120.713849,,台中市,太平區
5903190380,及宏藥局,04-23919911,臺中市太平區樹孝路502號,台中市太平區新坪里22鄰樹孝路502號,24.158058,120.72050300000001,,台中市,太平區
5903190415,艾兒親子藥局,04-23923668,臺中市太平區樹孝路259號1樓,台中市太平區新城里14鄰樹孝路259號,24.153458999999998,120.717992,,台中市,太平區
5903190433,太平瑞昌藥局,04-23956319,臺中市太平區新興路28號,台中市太平區新興里11鄰新興路28號,24.159162,120.71236200000001,,台中市,太平區
5903190442,天慈大藥局,04-22785052,臺中市太平區太平路540號,台中市太平區中政里1鄰太平路540號,24.125282000000002,120.713673,,台中市,太平區
5903190488,精武丁丁藥局,04-23957235,臺中市太平區中山路四段132－1號,台中市太平區新福里10鄰中山路四段132之1號,24.148554999999998,120.704401,,台中市,太平區
5903190497,太平惠民藥師藥局,04-22768799,臺中市太平區東平路368號1樓,台中市太平區東和里5鄰東平路368號,24.134328,120.72672,,台中市,太平區
5903190504,維肯藥局,04-23512198,臺中市太平區中興路78－1號,台中市太平區中興里11鄰中興路78之1號,24.127834,120.71634499999999,,台中市,太平區
5903190513,樹孝炘星藥局,04-23929578,臺中市太平區樹孝路476號,台中市太平區新坪里22鄰樹孝路476號,24.157348000000002,120.72031399999999,,台中市,太平區
5903190522,聖康佳禾藥局,04-22772065,臺中市太平區光興路831號,台中市太平區光隆里1鄰光興路831號,24.112103,120.730727,,台中市,太平區
5903190531,承泓藥局,04-23935148,臺中市太平區育賢路363號1樓,台中市太平區新高里22鄰育賢路363號,24.159104,120.713704,,台中市,太平區
5903190559,惠欣藥師藥局,04-23928881,臺中市太平區樹孝路2－12號1樓,台中市太平區新城里1鄰樹孝路2之12號,24.149770999999998,120.71638600000001,,台中市,太平區
5903190568,世國藥局,04-22752537,臺中市太平區永豐路426號1樓,台中市太平區太平里23鄰永豐路426號,24.111423000000002,120.703547,,台中市,太平區
5903190577,勤益藥局,04-24923540,臺中市太平區中山路一段321號1樓,台中市太平區坪林里5鄰中山路一段321號,24.144959,120.73429499999999,,台中市,太平區
5903200023,樂明藥局,04-24920763,臺中市大里區中興路1段261號,台中市大里區東湖里18鄰中興路一段261號,24.091054,120.69202299999999,前往領藥前先電話洽詢,台中市,大里區
5903200069,福德健保處方藥局,04-24935888,臺中市大里區塗城路758號1樓,台中市大里區金城里6鄰塗城路758號,24.090253,120.697526,,台中市,大里區
5903200096,仁化藥局,04-24915902,臺中市大里區仁化路540號,台中市大里區仁化里19鄰仁化路540號,24.096225,120.701194,,台中市,大里區
5903200121,弘佑藥局,04-24911234,臺中市大里區成功路515號1樓,台中市大里區瑞城里37鄰成功路515號,24.090705,120.703177,,台中市,大里區
5903200130,新家祐健保藥局,04-24918929,臺中市大里區中興路1段376號,台中市大里區金城里10鄰中興路一段376號,24.0913,120.69221,,台中市,大里區
5903200149,祥佑健保特約藥局,04-24866398,臺中市大里區中興路2段406號,台中市大里區內新里27鄰中興路二段406號,24.107688,120.690068,,台中市,大里區
